modzcta_first,NEIGHBORHOOD_NAME,label,lat,lon,NUM_PEOP_TEST,NUM_PEOP_POS,PERCENT_POSITIVE,TEST_RATE
10001,Chelsea/NoMad/West Chelsea,"10001, 10118",40.750693,-73.997137,10912,2290,21,39517.491
10002,Chinatown/Lower East Side,10002,40.715781,-73.986176,31554,8921,28.3,41891.748
10003,East Village/Gramercy/Greenwich Village,10003,40.731825,-73.989164,19081,3608,18.9,35349.711
10004,Financial District,10004,40.703675,-74.013106,1540,271,17.6,51814.937
10005,Financial District,10005,40.706092,-74.008861,3274,600,18.3,37386.269
10006,Financial District,10006,40.709651,-74.013044,1433,251,17.5,42373.89
10007,TriBeCa,10007,40.713923,-74.007546,3328,552,16.6,47600.999
10009,Alphabet City/East Village/Stuyvesant Town-Cooper Village,10009,40.72638,-73.978704,21190,4479,21.1,37077.137
10010,Flatiron/Gramercy/Kips Bay,10010,40.739119,-73.982544,12208,2220,18.2,36602.405
10011,Chelsea,10011,40.741707,-74.000062,20552,4008,19.5,41313.887
10012,Greenwich Village/SoHo,10012,40.725576,-73.998078,8317,1639,19.7,35923.358
10013,Hudson Square/Little Italy/SoHo/TriBeCa,10013,40.720096,-74.004763,13721,2902,21.2,47611.178
10014,Hudson Square/Meatpacking District/West Village,10014,40.73402,-74.006314,12461,2254,18.1,41076.537
10016,Kips Bay/Murray Hill/NoMad,10016,40.745174,-73.978319,21576,4325,20,42378.918
10017,East Midtown/Murray Hill,10017,40.752543,-73.973037,7279,1318,18.1,46620.607
10018,Hell's Kitchen/Midtown Manhattan,10018,40.755191,-73.992667,6114,1193,19.5,51855.099
10019,Hell's Kitchen/Midtown Manhattan,"10019, 10020",40.76528,-73.985974,18719,4027,21.5,43010.032
10021,Lenox Hill/Upper East Side,10021,40.769474,-73.958771,19828,3874,19.5,43221.287
10022,East Midtown,10022,40.758676,-73.968098,14172,2741,19.3,45869.755
10023,Lincoln Square,10023,40.775901,-73.982658,23565,4405,18.7,38141.881
10024,Upper West Side,10024,40.792085,-73.974871,22537,4412,19.6,38582.79
10025,Manhattan Valley/Morningside Heights/Upper West Side,10025,40.798651,-73.966585,32255,6946,21.5,35205.224
10026,Central Harlem (South),10026,40.802341,-73.952521,12376,3229,26.1,32008.804
10027,Central Harlem (South)/Morningside Heights/West Harlem,10027,40.8118,-73.953204,19313,5007,25.9,30464.764
10028,Upper East Side/Yorkville,10028,40.776432,-73.953509,19106,3644,19.1,40333.297
10029,East Harlem,10029,40.791777,-73.943969,22862,6751,29.5,29226.016
10030,Central Harlem (North),10030,40.818326,-73.942842,8470,2501,29.5,28937.607
10031,Hamilton Heights/West Harlem,10031,40.825278,-73.950037,23111,8217,35.6,39155.571
10032,Washington Heights (South),10032,40.838768,-73.942824,25387,9784,38.5,40264.156
10033,Washington Heights (North)/Washington Heights (South),10033,40.850497,-73.934007,25385,9837,38.8,43379.955
10034,Inwood/Washington Heights (North),10034,40.867168,-73.924048,17483,6538,37.4,41387.871
10035,East Harlem,10035,40.791,-73.924596,10585,3346,31.6,30036.867
10036,Hell's Kitchen/Midtown Manhattan,10036,40.75916,-73.989705,12221,2884,23.6,44860.623
10037,Central Harlem (North)/East Harlem,10037,40.812957,-73.937419,6816,1916,28.1,32779.684
10038,Chinatown/Financial District,10038,40.709696,-74.002391,8200,1787,21.8,35863.338
10039,Central Harlem (North)/Washington Heights (South),10039,40.830807,-73.936247,8239,2529,30.7,30311.874
10040,Washington Heights (North),10040,40.85831,-73.93049,19015,7346,38.6,43249.012
10044,Roosevelt Island,10044,40.761931,-73.949924,3467,758,21.9,29703.963
10065,Lenox Hill/Upper East Side,10065,40.764616,-73.963135,12713,2273,17.9,45567.777
10069,Lincoln Square,10069,40.775924,-73.990256,2498,457,18.3,39748.178
10075,Lenox Hill/Upper East Side,"10075, 10162",40.773132,-73.955884,11035,2249,20.4,47885.611
10128,Upper East Side/Yorkville,10128,40.781466,-73.950226,24211,4574,18.9,41344.768
10280,Battery Park City,10280,40.709318,-74.016654,2768,451,16.3,29616.266
10282,Battery Park City,10282,40.716409,-74.015077,1779,287,16.1,31927.819
10301,Silver Lake/St. George,10301,40.628224,-74.096232,11615,3440,29.6,29854.803
10302,Elm Park,10302,40.630598,-74.137891,4589,1505,32.8,24825.575
10303,Graniteville/Mariner's Harbor/Port Ivory,10303,40.632135,-74.169166,6328,2041,32.3,23867.905
10304,New Dorp/Todt Hill,10304,40.605985,-74.0943,13983,4380,31.3,33382.778
10305,Arrochar/Midland Beach/Shore Acres/South Beach Ocean Breeze,10305,40.595474,-74.075437,14979,4671,31.2,34951.779
10306,Lighthouse Hill/Midland Beach/New Dorp/Oakwood,10306,40.571571,-74.125541,20948,6168,29.4,39669.124
10307,Tottenville,10307,40.507771,-74.24227,5087,1461,28.7,34113.104
10308,Great Kills,10308,40.551574,-74.150454,9984,2763,27.7,33480.052
10309,Charleston/Prince's Bay/Woodrow,10309,40.531355,-74.220574,12302,3517,28.6,37347.187
10310,Port Richmond/Randall Manor/West Brighton,10310,40.632398,-74.11618,8557,2418,28.3,36503.564
10312,Annadale/Rossville,10312,40.545128,-74.18169,22268,6246,28,36473.389
10314,Bloomfield/Freshkills Park,10314,40.599333,-74.166462,30300,9322,30.8,32748.306
10451,Concourse/Melrose,10451,40.820705,-73.923865,15128,5493,36.3,31937.764
10452,Concourse/Highbridge,10452,40.837364,-73.923461,27427,11553,42.1,36466.058
10453,Morris Heights/Mount Hope/University Heights,10453,40.852304,-73.913578,25990,10798,41.5,33033.553
10454,Mott Haven/Port Morris,10454,40.805487,-73.916605,11410,4332,38,30161.467
10455,Mott Haven,10455,40.8147,-73.908583,12255,4559,37.2,29252.553
10456,Claremont/Morrisania,10456,40.829884,-73.908121,27096,10657,39.3,29075.197
10457,Belmont/Claremont/Mount Hope/Tremont,10457,40.847151,-73.898676,22751,9022,39.7,30860.712
10458,Belmont/Fordham University/Kingsbridge,10458,40.862531,-73.88817,22526,8498,37.7,27224.901
10459,Charlotte Gardens/Hunts Point,10459,40.82584,-73.892976,14636,5424,37.1,30572.634
10460,Charlotte Gardens/Tremont/Van Nest/West Farms,10460,40.841753,-73.879584,17641,6244,35.4,29963.635
10461,Morris Park/Pelham Bay/Westchester Square,10461,40.847415,-73.840601,18495,5412,29.3,37669.691
10462,Parkchester/Pelham Parkway/Van Nest/Westchester Square,10462,40.842874,-73.858772,25870,7917,30.6,34348.693
10463,Kingsbridge/Marble Hill/Riverdale/Spuyten Duyvil,10463,40.880824,-73.906514,24733,7750,31.3,35341.003
10464,City Island,10464,40.872311,-73.804653,1548,372,24,36122.688
10465,Country Club/Throgs Neck,10465,40.823931,-73.822886,15335,4442,29,35561.701
10466,Edenwald/Wakefield,10466,40.890965,-73.845912,16611,5704,34.3,23294.032
10467,Allerton/Norwood/Pelham Parkway/Williamsbridge,10467,40.880939,-73.873956,28892,10529,36.4,28309.232
10468,Fordham/Kingsbridge/University Heights,10468,40.868161,-73.899844,25294,10168,40.2,32506.801
10469,Allerton/Baychester/Pelham Gardens/Williamsbridge,10469,40.86876,-73.846984,18726,6102,32.6,25787.364
10470,Wakefield/Woodlawn,10470,40.895986,-73.86802,4217,1339,31.8,28128.742
10471,Fieldston/North Riverdale/Riverdale,10471,40.899509,-73.901518,7797,2143,27.5,36707.209
10472,Soundview,10472,40.829561,-73.869393,18856,7062,37.5,27737.926
10473,Castle Hill/Clason Point/Soundview,10473,40.818135,-73.858718,17957,5554,30.9,30378.679
10474,Hunts Point,10474,40.810595,-73.884618,3226,1168,36.2,26938.142
10475,Co-op City/Edenwald,10475,40.868941,-73.824854,10846,3281,30.3,25378.311
11004,Bellerose/Douglaston-Little Neck,"11004, 11005",40.748068,-73.710907,8051,2427,30.1,42486.617
11101,Astoria (South)/Long Island City/Sunnyside,11101,40.747077,-73.938586,15784,3851,24.4,42849.92
11102,Astoria (North),11102,40.772498,-73.925912,12882,3626,28.1,42876.04
11103,Astoria (North)/Astoria (South),11103,40.762536,-73.913541,13899,3815,27.4,39782.599
11104,Sunnyside,11104,40.744658,-73.920205,10982,3171,28.9,43173.2
11105,Ditmars Steinway,11105,40.778969,-73.906286,14512,3472,23.9,40099.637
11106,Astoria (South),11106,40.761792,-73.931771,14291,4064,28.4,38182.009
11109,Long Island City,11109,40.746211,-73.956999,2385,401,16.8,41386.447
11201,Brooklyn Heights/DUMBO/Downtown Brooklyn,11201,40.694609,-73.989581,25033,4308,17.2,40185.209
11203,East Flatbush (North)/East Flatbush (South),11203,40.649576,-73.934363,21664,8505,39.3,29549.457
11204,Bensonhurst/Mapleton,11204,40.618774,-73.984824,34866,14986,43,45229.13
11205,Bedford-Stuyvesant (West)/Clinton Hill/Fort Greene,11205,40.694625,-73.966212,15119,4600,30.4,33351.424
11206,Williamsburg (South),11206,40.701957,-73.942361,27792,9521,34.3,32051.693
11207,Cypress Hills/East New York,11207,40.670819,-73.894255,26513,8944,33.7,29779.237
11208,Cypress Hills/East New York,11208,40.668385,-73.871084,28669,10886,38,29999.419
11209,Bay Ridge/Fort Hamilton,11209,40.621811,-74.030011,25903,6750,26.1,38366.607
11210,Flatlands/Midwood,11210,40.628165,-73.946316,24860,10748,43.2,37846.146
11211,East Williamsburg/Williamsburg (North)/Williamsburg (South),"11211, 11249",40.712334,-73.953851,39242,13102,33.4,38598.559
11212,Ocean Hill-Brownsville,11212,40.662935,-73.913011,22079,7785,35.3,29849.802
11213,Crown Heights (East),11213,40.671074,-73.93633,22618,9330,41.3,35011.7
11214,Bath Beach/Bensonhurst/Gravesend,11214,40.598729,-73.99621,37075,11926,32.2,39945.414
11215,Gowanus/Park Slope/Windsor Terrace,11215,40.66252,-73.986872,23555,3758,16,33831.547
11216,Bedford-Stuyvesant (West)/Crown Heights (West),11216,40.680785,-73.94931,17120,3982,23.3,31226.426
11217,Boerum Hill/Park Slope,"11217, 11243",40.682417,-73.97938,15014,2774,18.5,36735.345
11218,Kensington/Windsor Terrace,11218,40.64348,-73.976044,30909,11792,38.2,41771.224
11219,Borough Park,11219,40.632662,-73.996666,42795,21886,51.1,47506.435
11220,Sunset Park,11220,40.641081,-74.016495,39731,14093,35.5,42003.046
11221,Bedford-Stuyvesant (East)/Bushwick,11221,40.691339,-73.927885,24659,6815,27.6,30278.457
11222,Greenpoint,11222,40.728292,-73.947562,15055,2958,19.6,41676.568
11223,Gravesend/Homecrest,11223,40.597169,-73.973422,32769,11725,35.8,40211.485
11224,Brighton Beach/Coney Island/Seagate,11224,40.57666,-73.988581,18645,6814,36.5,40295.384
11225,Crown Heights (West)/Prospect Lefferts Gardens,11225,40.663056,-73.954226,19078,6717,35.2,33171.233
11226,Flatbush/Prospect Lefferts Gardens,11226,40.646456,-73.956654,27436,9657,35.2,28181.376
11228,Bath Beach/Dyker Heights,11228,40.616715,-74.013054,15974,4651,29.1,35511.181
11229,Gerritsen Beach/Homecrest/Sheepshead Bay,11229,40.601175,-73.944465,36886,12740,34.5,44158.206
11230,Midwood,11230,40.622164,-73.965096,41972,18094,43.1,47218.331
11231,Carroll Gardens/Cobble Hill/Red Hook,11231,40.677562,-74.004445,13561,2375,17.5,36282.026
11232,Sunset Park,11232,40.655984,-74.005304,8828,3074,34.8,32592.814
11233,Bedford-Stuyvesant (East)/Ocean Hill-Brownsville,11233,40.678302,-73.919931,17600,5088,28.9,23680.296
11234,Bergen Beach/Flatlands/Marine Park/Mill Basin,11234,40.60758,-73.910513,34854,11747,33.7,37056.618
11235,Brighton Beach/Manhattan Beach/Sheepshead Bay,11235,40.583915,-73.949669,38580,13954,36.2,49336.539
11236,Canarsie,11236,40.640004,-73.901459,30618,11355,37.1,31526.858
11237,Bushwick/East Williamsburg,11237,40.704153,-73.920883,16813,5955,35.4,35026.659
11238,Clinton Hill/Prospect Heights,11238,40.679179,-73.963804,21130,4059,19.2,39459.468
11239,East New York,11239,40.64753,-73.882398,5847,1951,33.4,44899.903
11354,Flushing/Murray Hill,11354,40.76863,-73.827229,23583,7961,33.8,43737.954
11355,Flushing/Murray Hill/Queensboro Hill,11355,40.751459,-73.821014,39752,13431,33.8,50412.862
11356,College Point,11356,40.784867,-73.841495,9464,3261,34.5,41483.269
11357,Whitestone,11357,40.78639,-73.810964,17096,4779,28,44158.861
11358,Auburndale/Murray Hill,11358,40.760475,-73.79637,14335,3978,27.8,39792.237
11360,Bayside (North),11360,40.78205,-73.7808,7818,1982,25.4,41049.307
11361,Bayside (North)/Bayside (South),11361,40.763748,-73.772419,10422,2697,25.9,39521.29
11362,Douglaston-Little Neck,11362,40.756533,-73.736995,7053,1818,25.8,38963.157
11363,Douglaston-Little Neck,11363,40.772803,-73.746444,2767,698,25.2,41081.979
11364,Bayside (South)/Oakland Gardens,11364,40.745279,-73.760578,13655,3511,25.7,38261.847
11365,Auburndale/Fresh Meadows/Pomonok/Utopia,11365,40.739775,-73.794806,17300,4814,27.8,39484.127
11366,Fresh Meadows/Hillcrest,11366,40.728136,-73.784981,5919,1969,33.3,41659.224
11367,Kew Gardens Hills/Pomonok,11367,40.730383,-73.826297,18827,7154,38,46285.236
11368,Corona/North Corona,11368,40.749594,-73.852604,44658,23016,51.5,40462.164
11369,Airport/East Elmhurst,11369,40.768944,-73.872812,15070,6972,46.3,44814.186
11370,Jackson Heights/Rikers Island,11370,40.763466,-73.891021,14304,5100,35.7,45013.214
11372,Jackson Heights,11372,40.75169,-73.883634,30341,12902,42.5,49999.406
11373,Elmhurst,11373,40.738823,-73.8785,44153,17678,40,48172.671
11374,Rego Park,11374,40.726441,-73.861497,21137,7122,33.7,51063.273
11375,Forest Hills,11375,40.720931,-73.846184,30360,8545,28.1,42600.651
11377,Woodside,11377,40.744823,-73.90516,35699,13111,36.7,42474.483
11378,Maspeth,11378,40.724768,-73.909399,14092,4543,32.2,38986.927
11379,Middle Village,11379,40.716758,-73.879597,15035,4252,28.3,41038.322
11385,Glendale/Ridgewood,11385,40.701058,-73.890159,37585,12155,32.3,36273.64
11411,Cambria Heights,11411,40.694202,-73.735998,5923,1959,33.1,27705.917
11412,St. Albans,11412,40.698095,-73.758984,10270,3660,35.6,26957.091
11413,Laurelton/Rosedale,11413,40.669738,-73.750842,11832,4162,35.2,27384.527
11414,Hamilton Beach/Howard Beach/Lindenwood,11414,40.658266,-73.844905,10899,3168,29.1,38433.063
11415,Kew Gardens,11415,40.708323,-73.828212,8597,2901,33.7,45551.779
11416,Ozone Park,11416,40.684652,-73.849549,9908,3611,36.4,37545.067
11417,Ozone Park,11417,40.676457,-73.844522,11657,3895,33.4,37553.15
11418,Richmond Hill,11418,40.700236,-73.836062,15514,5700,36.7,41276.447
11419,Richmond Hill/South Ozone Park,11419,40.688676,-73.822901,15379,5410,35.2,31706.063
11420,South Ozone Park,11420,40.673518,-73.817812,14514,5011,34.5,30341.764
11421,Woodhaven,11421,40.69405,-73.85867,16382,6113,37.3,40904.382
11422,Rosedale,11422,40.660819,-73.73608,9277,3088,33.3,28642.389
11423,Hollis/Holliswood,11423,40.71491,-73.767865,10660,3784,35.5,34234.252
11426,Bellerose,11426,40.736521,-73.722384,7405,2167,29.3,36724.625
11427,Bellerose/Hollis Hills/Holliswood,11427,40.730915,-73.745611,9657,3121,32.3,40966.665
11428,Queens Village,11428,40.721015,-73.742206,7293,2412,33.1,39249.937
11429,Queens Village,11429,40.709772,-73.738731,8791,3151,35.8,27328.149
11432,Hillcrest/Jamaica Estates/Jamaica Hills,11432,40.715359,-73.793064,26684,9840,36.9,43920.876
11433,Jamaica,11433,40.69823,-73.787095,10196,3711,36.4,27917.48
11434,Airport/South Jamaica/Springfield Gardens/St. Albans,11434,40.656866,-73.783386,18029,6139,34.1,27004.329
11435,Briarwood/Jamaica,11435,40.701291,-73.809618,19559,7164,36.6,33482.815
11436,South Jamaica/South Ozone Park,11436,40.675819,-73.796618,5364,1801,33.6,26763.075
11691,Edgemere/Far Rockaway,11691,40.60133,-73.761357,20912,8236,39.4,31279.024
11692,Arverne/Edgemere,11692,40.592794,-73.792203,5077,1703,33.5,24142.704
11693,Arverne/Broad Channel,11693,40.603699,-73.821926,3805,1080,28.4,30026.498
11694,Belle Harbor-Neponsit/Rockaway Park,11694,40.577599,-73.844553,7588,2178,28.7,36516.936
11697,Breezy Point,11697,40.55907,-73.907199,2437,556,22.8,71832.457
