modzcta_first,NEIGHBORHOOD_NAME,label,lat,lon,NUM_PEOP_TEST,NUM_PEOP_POS,PERCENT_POSITIVE,TEST_RATE
10001,Chelsea/NoMad/West Chelsea,"10001, 10118",40.750693,-73.997137,10695,2041,19.1,38731.632
10002,Chinatown/Lower East Side,10002,40.715781,-73.986176,30664,7425,24.2,40710.166
10003,East Village/Gramercy/Greenwich Village,10003,40.731825,-73.989164,18863,3345,17.7,34945.841
10004,Financial District,10004,40.703675,-74.013106,1524,256,16.8,51276.6
10005,Financial District,10005,40.706092,-74.008861,3236,562,17.4,36952.342
10006,Financial District,10006,40.709651,-74.013044,1414,231,16.3,41812.059
10007,TriBeCa,10007,40.713923,-74.007546,3294,513,15.6,47114.691
10009,Alphabet City/East Village/Stuyvesant Town-Cooper Village,10009,40.72638,-73.978704,20878,4073,19.5,36531.216
10010,Flatiron/Gramercy/Kips Bay,10010,40.739119,-73.982544,12074,2049,17,36200.642
10011,Chelsea,10011,40.741707,-74.000062,20315,3710,18.3,40837.466
10012,Greenwich Village/SoHo,10012,40.725576,-73.998078,8208,1471,17.9,35452.558
10013,Hudson Square/Little Italy/SoHo/TriBeCa,10013,40.720096,-74.004763,13497,2541,18.8,46833.909
10014,Hudson Square/Meatpacking District/West Village,10014,40.73402,-74.006314,12332,2091,17,40651.3
10016,Kips Bay/Murray Hill/NoMad,10016,40.745174,-73.978319,21227,3915,18.4,41693.423
10017,East Midtown/Murray Hill,10017,40.752543,-73.973037,7141,1170,16.4,45736.743
10018,Hell's Kitchen/Midtown Manhattan,10018,40.755191,-73.992667,5952,1051,17.7,50481.117
10019,Hell's Kitchen/Midtown Manhattan,"10019, 10020",40.76528,-73.985974,18270,3561,19.5,41978.38
10021,Lenox Hill/Upper East Side,10021,40.769474,-73.958771,19591,3547,18.1,42704.672
10022,East Midtown,10022,40.758676,-73.968098,13961,2485,17.8,45186.822
10023,Lincoln Square,10023,40.775901,-73.982658,23016,3727,16.2,37253.279
10024,Upper West Side,10024,40.792085,-73.974871,22166,3919,17.7,37947.647
10025,Manhattan Valley/Morningside Heights/Upper West Side,10025,40.798651,-73.966585,31739,6316,19.9,34642.028
10026,Central Harlem (South),10026,40.802341,-73.952521,12118,2976,24.6,31341.523
10027,Central Harlem (South)/Morningside Heights/West Harlem,10027,40.8118,-73.953204,19075,4753,24.9,30089.338
10028,Upper East Side/Yorkville,10028,40.776432,-73.953509,18872,3295,17.5,39839.316
10029,East Harlem,10029,40.791777,-73.943969,22339,6175,27.6,28557.431
10030,Central Harlem (North),10030,40.818326,-73.942842,8351,2381,28.5,28531.046
10031,Hamilton Heights/West Harlem,10031,40.825278,-73.950037,22781,7879,34.6,38596.472
10032,Washington Heights (South),10032,40.838768,-73.942824,25008,9357,37.4,39663.057
10033,Washington Heights (North)/Washington Heights (South),10033,40.850497,-73.934007,25003,9389,37.6,42727.162
10034,Inwood/Washington Heights (North),10034,40.867168,-73.924048,17246,6269,36.4,40826.816
10035,East Harlem,10035,40.791,-73.924596,10395,3153,30.3,29497.708
10036,Hell's Kitchen/Midtown Manhattan,10036,40.75916,-73.989705,11954,2633,22,43880.524
10037,Central Harlem (North)/East Harlem,10037,40.812957,-73.937419,6716,1820,27.1,32298.762
10038,Chinatown/Financial District,10038,40.709696,-74.002391,8062,1540,19.1,35259.784
10039,Central Harlem (North)/Washington Heights (South),10039,40.830807,-73.936247,8108,2395,29.5,29829.915
10040,Washington Heights (North),10040,40.85831,-73.93049,18769,7086,37.8,42689.493
10044,Roosevelt Island,10044,40.761931,-73.949924,3406,693,20.3,29181.337
10065,Lenox Hill/Upper East Side,10065,40.764616,-73.963135,12558,2069,16.5,45012.203
10069,Lincoln Square,10069,40.775924,-73.990256,2437,394,16.2,38777.546
10075,Lenox Hill/Upper East Side,"10075, 10162",40.773132,-73.955884,10865,2025,18.6,47147.908
10128,Upper East Side/Yorkville,10128,40.781466,-73.950226,23911,4128,17.3,40832.462
10280,Battery Park City,10280,40.709318,-74.016654,2730,409,15,29209.685
10282,Battery Park City,10282,40.716409,-74.015077,1760,262,14.9,31586.824
10301,Silver Lake/St. George,10301,40.628224,-74.096232,11344,3151,27.8,29158.234
10302,Elm Park,10302,40.630598,-74.137891,4472,1376,30.8,24192.628
10303,Graniteville/Mariner's Harbor/Port Ivory,10303,40.632135,-74.169166,6128,1835,29.9,23113.547
10304,New Dorp/Todt Hill,10304,40.605985,-74.0943,13527,3874,28.6,32294.131
10305,Arrochar/Midland Beach/Shore Acres/South Beach Ocean Breeze,10305,40.595474,-74.075437,14417,4012,27.8,33640.416
10306,Lighthouse Hill/Midland Beach/New Dorp/Oakwood,10306,40.571571,-74.125541,20284,5338,26.3,38411.71
10307,Tottenville,10307,40.507771,-74.24227,4990,1334,26.7,33462.629
10308,Great Kills,10308,40.551574,-74.150454,9669,2392,24.7,32423.74
10309,Charleston/Prince's Bay/Woodrow,10309,40.531355,-74.220574,11990,3142,26.2,36399.998
10310,Port Richmond/Randall Manor/West Brighton,10310,40.632398,-74.11618,8427,2275,27,35948.993
10312,Annadale/Rossville,10312,40.545128,-74.18169,21668,5527,25.5,35490.632
10314,Bloomfield/Freshkills Park,10314,40.599333,-74.166462,29530,8408,28.5,31916.089
10451,Concourse/Melrose,10451,40.820705,-73.923865,14914,5288,35.5,31485.974
10452,Concourse/Highbridge,10452,40.837364,-73.923461,26970,11074,41.1,35858.445
10453,Morris Heights/Mount Hope/University Heights,10453,40.852304,-73.913578,25543,10397,40.7,32465.411
10454,Mott Haven/Port Morris,10454,40.805487,-73.916605,11208,4137,36.9,29627.496
10455,Mott Haven,10455,40.8147,-73.908583,12064,4389,36.4,28796.638
10456,Claremont/Morrisania,10456,40.829884,-73.908121,26689,10286,38.5,28638.468
10457,Belmont/Claremont/Mount Hope/Tremont,10457,40.847151,-73.898676,22353,8718,39,30320.843
10458,Belmont/Fordham University/Kingsbridge,10458,40.862531,-73.88817,22156,8163,36.8,26777.72
10459,Charlotte Gardens/Hunts Point,10459,40.82584,-73.892976,14436,5262,36.5,30154.861
10460,Charlotte Gardens/Tremont/Van Nest/West Farms,10460,40.841753,-73.879584,17343,6023,34.7,29457.475
10461,Morris Park/Pelham Bay/Westchester Square,10461,40.847415,-73.840601,18225,5147,28.2,37119.768
10462,Parkchester/Pelham Parkway/Van Nest/Westchester Square,10462,40.842874,-73.858772,25453,7570,29.7,33795.025
10463,Kingsbridge/Marble Hill/Riverdale/Spuyten Duyvil,10463,40.880824,-73.906514,24289,7333,30.2,34706.571
10464,City Island,10464,40.872311,-73.804653,1523,348,22.8,35539.311
10465,Country Club/Throgs Neck,10465,40.823931,-73.822886,15068,4143,27.5,34942.531
10466,Edenwald/Wakefield,10466,40.890965,-73.845912,16297,5532,33.9,22853.702
10467,Allerton/Norwood/Pelham Parkway/Williamsbridge,10467,40.880939,-73.873956,28397,10113,35.6,27824.217
10468,Fordham/Kingsbridge/University Heights,10468,40.868161,-73.899844,24808,9780,39.4,31882.214
10469,Allerton/Baychester/Pelham Gardens/Williamsbridge,10469,40.86876,-73.846984,18404,5856,31.8,25343.941
10470,Wakefield/Woodlawn,10470,40.895986,-73.86802,4146,1285,31,27655.149
10471,Fieldston/North Riverdale/Riverdale,10471,40.899509,-73.901518,7647,1984,25.9,36001.03
10472,Soundview,10472,40.829561,-73.869393,18492,6777,36.6,27202.468
10473,Castle Hill/Clason Point/Soundview,10473,40.818135,-73.858718,17682,5339,30.2,29913.449
10474,Hunts Point,10474,40.810595,-73.884618,3188,1142,35.8,26620.829
10475,Co-op City/Edenwald,10475,40.868941,-73.824854,10666,3145,29.5,24957.133
11004,Bellerose/Douglaston-Little Neck,"11004, 11005",40.748068,-73.710907,7822,2078,26.6,41278.141
11101,Astoria (South)/Long Island City/Sunnyside,11101,40.747077,-73.938586,15533,3571,23,42168.512
11102,Astoria (North),11102,40.772498,-73.925912,12665,3426,27.1,42153.784
11103,Astoria (North)/Astoria (South),11103,40.762536,-73.913541,13644,3566,26.1,39052.722
11104,Sunnyside,11104,40.744658,-73.920205,10831,2966,27.4,42579.578
11105,Ditmars Steinway,11105,40.778969,-73.906286,14254,3221,22.6,39386.73
11106,Astoria (South),11106,40.761792,-73.931771,14040,3756,26.8,37511.399
11109,Long Island City,11109,40.746211,-73.956999,2347,361,15.4,40727.04
11201,Brooklyn Heights/DUMBO/Downtown Brooklyn,11201,40.694609,-73.989581,24779,4025,16.2,39777.466
11203,East Flatbush (North)/East Flatbush (South),11203,40.649576,-73.934363,21267,8138,38.3,29007.953
11204,Bensonhurst/Mapleton,11204,40.618774,-73.984824,33648,13307,39.5,43649.107
11205,Bedford-Stuyvesant (West)/Clinton Hill/Fort Greene,11205,40.694625,-73.966212,14931,4416,29.6,32936.709
11206,Williamsburg (South),11206,40.701957,-73.942361,27382,9043,33,31578.852
11207,Cypress Hills/East New York,11207,40.670819,-73.894255,26079,8533,32.7,29291.771
11208,Cypress Hills/East New York,11208,40.668385,-73.871084,28120,10335,36.8,29424.942
11209,Bay Ridge/Fort Hamilton,11209,40.621811,-74.030011,25379,6088,24,37590.477
11210,Flatlands/Midwood,11210,40.628165,-73.946316,24391,10149,41.6,37132.154
11211,East Williamsburg/Williamsburg (North)/Williamsburg (South),"11211, 11249",40.712334,-73.953851,38791,12631,32.6,38154.954
11212,Ocean Hill-Brownsville,11212,40.662935,-73.913011,21522,7418,34.5,29096.764
11213,Crown Heights (East),11213,40.671074,-73.93633,22230,8964,40.3,34411.093
11214,Bath Beach/Bensonhurst/Gravesend,11214,40.598729,-73.99621,35651,9947,27.9,38411.165
11215,Gowanus/Park Slope/Windsor Terrace,11215,40.66252,-73.986872,23397,3572,15.3,33604.615
11216,Bedford-Stuyvesant (West)/Crown Heights (West),11216,40.680785,-73.94931,16898,3817,22.6,30821.504
11217,Boerum Hill/Park Slope,"11217, 11243",40.682417,-73.97938,14881,2649,17.8,36409.929
11218,Kensington/Windsor Terrace,11218,40.64348,-73.976044,30431,11166,36.7,41125.242
11219,Borough Park,11219,40.632662,-73.996666,41517,20201,48.7,46087.736
11220,Sunset Park,11220,40.641081,-74.016495,37642,11323,30.1,39794.585
11221,Bedford-Stuyvesant (East)/Bushwick,11221,40.691339,-73.927885,24357,6517,26.8,29907.635
11222,Greenpoint,11222,40.728292,-73.947562,14904,2772,18.6,41258.557
11223,Gravesend/Homecrest,11223,40.597169,-73.973422,31881,10500,32.9,39121.803
11224,Brighton Beach/Coney Island/Seagate,11224,40.57666,-73.988581,17990,5833,32.4,38879.805
11225,Crown Heights (West)/Prospect Lefferts Gardens,11225,40.663056,-73.954226,18855,6493,34.4,32783.499
11226,Flatbush/Prospect Lefferts Gardens,11226,40.646456,-73.956654,27059,9256,34.2,27794.134
11228,Bath Beach/Dyker Heights,11228,40.616715,-74.013054,15463,3917,25.3,34375.196
11229,Gerritsen Beach/Homecrest/Sheepshead Bay,11229,40.601175,-73.944465,35833,11196,31.2,42897.603
11230,Midwood,11230,40.622164,-73.965096,41091,16819,40.9,46227.21
11231,Carroll Gardens/Cobble Hill/Red Hook,11231,40.677562,-74.004445,13457,2253,16.7,36003.777
11232,Sunset Park,11232,40.655984,-74.005304,8656,2848,32.9,31957.793
11233,Bedford-Stuyvesant (East)/Ocean Hill-Brownsville,11233,40.678302,-73.919931,17319,4867,28.1,23302.218
11234,Bergen Beach/Flatlands/Marine Park/Mill Basin,11234,40.60758,-73.910513,34228,10881,31.8,36391.058
11235,Brighton Beach/Manhattan Beach/Sheepshead Bay,11235,40.583915,-73.949669,37171,11979,32.2,47534.694
11236,Canarsie,11236,40.640004,-73.901459,30032,10752,35.8,30923.463
11237,Bushwick/East Williamsburg,11237,40.704153,-73.920883,16611,5742,34.6,34605.831
11238,Clinton Hill/Prospect Heights,11238,40.679179,-73.963804,20947,3874,18.5,39117.722
11239,East New York,11239,40.64753,-73.882398,5718,1784,31.2,43909.295
11354,Flushing/Murray Hill,11354,40.76863,-73.827229,22712,6382,28.1,42122.564
11355,Flushing/Murray Hill/Queensboro Hill,11355,40.751459,-73.821014,38091,10532,27.6,48306.408
11356,College Point,11356,40.784867,-73.841495,9159,2832,30.9,40146.371
11357,Whitestone,11357,40.78639,-73.810964,16601,4039,24.3,42880.279
11358,Auburndale/Murray Hill,11358,40.760475,-73.79637,13907,3328,23.9,38604.161
11360,Bayside (North),11360,40.78205,-73.7808,7615,1673,22,39983.432
11361,Bayside (North)/Bayside (South),11361,40.763748,-73.772419,10110,2224,22,38338.154
11362,Douglaston-Little Neck,11362,40.756533,-73.736995,6841,1458,21.3,37791.998
11363,Douglaston-Little Neck,11363,40.772803,-73.746444,2673,556,20.8,39686.35
11364,Bayside (South)/Oakland Gardens,11364,40.745279,-73.760578,13233,2829,21.4,37079.386
11365,Auburndale/Fresh Meadows/Pomonok/Utopia,11365,40.739775,-73.794806,16801,4025,24,38345.25
11366,Fresh Meadows/Hillcrest,11366,40.728136,-73.784981,5733,1696,29.6,40350.115
11367,Kew Gardens Hills/Pomonok,11367,40.730383,-73.826297,18300,6376,34.8,44989.633
11368,Corona/North Corona,11368,40.749594,-73.852604,43863,21943,50,39741.858
11369,Airport/East Elmhurst,11369,40.768944,-73.872812,14747,6582,44.6,43853.67
11370,Jackson Heights/Rikers Island,11370,40.763466,-73.891021,13891,4695,33.8,43713.546
11372,Jackson Heights,11372,40.75169,-73.883634,29711,12088,40.7,48961.219
11373,Elmhurst,11373,40.738823,-73.8785,43165,16116,37.3,47094.723
11374,Rego Park,11374,40.726441,-73.861497,20601,6338,30.8,49768.392
11375,Forest Hills,11375,40.720931,-73.846184,29680,7561,25.5,41646.486
11377,Woodside,11377,40.744823,-73.90516,34991,12072,34.5,41632.108
11378,Maspeth,11378,40.724768,-73.909399,13808,4191,30.4,38201.212
11379,Middle Village,11379,40.716758,-73.879597,14715,3826,26,40164.876
11385,Glendale/Ridgewood,11385,40.701058,-73.890159,36928,11460,31,35639.563
11411,Cambria Heights,11411,40.694202,-73.735998,5740,1783,31.1,26849.901
11412,St. Albans,11412,40.698095,-73.758984,9984,3369,33.7,26206.387
11413,Laurelton/Rosedale,11413,40.669738,-73.750842,11520,3862,33.5,26662.419
11414,Hamilton Beach/Howard Beach/Lindenwood,11414,40.658266,-73.844905,10664,2835,26.6,37604.384
11415,Kew Gardens,11415,40.708323,-73.828212,8388,2631,31.4,44444.379
11416,Ozone Park,11416,40.684652,-73.849549,9644,3288,34.1,36544.673
11417,Ozone Park,11417,40.676457,-73.844522,11394,3536,31,36705.893
11418,Richmond Hill,11418,40.700236,-73.836062,15156,5279,34.8,40323.954
11419,Richmond Hill/South Ozone Park,11419,40.688676,-73.822901,15082,4974,33,31093.754
11420,South Ozone Park,11420,40.673518,-73.817812,14178,4589,32.4,29639.351
11421,Woodhaven,11421,40.69405,-73.85867,15999,5589,34.9,39948.065
11422,Rosedale,11422,40.660819,-73.73608,9036,2840,31.4,27898.311
11423,Hollis/Holliswood,11423,40.71491,-73.767865,10429,3486,33.4,33492.403
11426,Bellerose,11426,40.736521,-73.722384,7219,1934,26.8,35802.17
11427,Bellerose/Hollis Hills/Holliswood,11427,40.730915,-73.745611,9450,2806,29.7,40088.535
11428,Queens Village,11428,40.721015,-73.742206,7138,2205,30.9,38415.748
11429,Queens Village,11429,40.709772,-73.738731,8531,2883,33.8,26519.899
11432,Hillcrest/Jamaica Estates/Jamaica Hills,11432,40.715359,-73.793064,26104,9053,34.7,42966.218
11433,Jamaica,11433,40.69823,-73.787095,9929,3437,34.6,27186.412
11434,Airport/South Jamaica/Springfield Gardens/St. Albans,11434,40.656866,-73.783386,17571,5677,32.3,26318.324
11435,Briarwood/Jamaica,11435,40.701291,-73.809618,19088,6634,34.8,32676.515
11436,South Jamaica/South Ozone Park,11436,40.675819,-73.796618,5225,1652,31.6,26069.55
11691,Edgemere/Far Rockaway,11691,40.60133,-73.761357,20264,7605,37.5,30309.781
11692,Arverne/Edgemere,11692,40.592794,-73.792203,4932,1574,31.9,23453.185
11693,Arverne/Broad Channel,11693,40.603699,-73.821926,3737,990,26.5,29489.888
11694,Belle Harbor-Neponsit/Rockaway Park,11694,40.577599,-73.844553,7481,2042,27.3,36002.003
11697,Breezy Point,11697,40.55907,-73.907199,2418,529,21.9,71272.418
