modzcta_first,NEIGHBORHOOD_NAME,label,lat,lon,NUM_PEOP_TEST,NUM_PEOP_POS,PERCENT_POSITIVE,TEST_RATE
10001,Chelsea/NoMad/West Chelsea,"10001, 10118",40.750693,-73.997137,10553,1915,18.1,38217.383
10002,Chinatown/Lower East Side,10002,40.715781,-73.986176,30003,6445,21.5,39832.608
10003,East Village/Gramercy/Greenwich Village,10003,40.731825,-73.989164,18692,3135,16.8,34629.045
10004,Financial District,10004,40.703675,-74.013106,1504,241,16,50603.679
10005,Financial District,10005,40.706092,-74.008861,3213,535,16.7,36689.701
10006,Financial District,10006,40.709651,-74.013044,1407,223,15.8,41605.069
10007,TriBeCa,10007,40.713923,-74.007546,3264,479,14.7,46685.595
10009,Alphabet City/East Village/Stuyvesant Town-Cooper Village,10009,40.72638,-73.978704,20685,3807,18.4,36193.515
10010,Flatiron/Gramercy/Kips Bay,10010,40.739119,-73.982544,11963,1926,16.1,35867.839
10011,Chelsea,10011,40.741707,-74.000062,20115,3455,17.2,40435.424
10012,Greenwich Village/SoHo,10012,40.725576,-73.998078,8138,1371,16.8,35150.209
10013,Hudson Square/Little Italy/SoHo/TriBeCa,10013,40.720096,-74.004763,13343,2300,17.2,46299.537
10014,Hudson Square/Meatpacking District/West Village,10014,40.73402,-74.006314,12227,1955,16,40305.177
10016,Kips Bay/Murray Hill/NoMad,10016,40.745174,-73.978319,20998,3654,17.4,41243.629
10017,East Midtown/Murray Hill,10017,40.752543,-73.973037,7056,1070,15.2,45192.334
10018,Hell's Kitchen/Midtown Manhattan,10018,40.755191,-73.992667,5901,992,16.8,50048.567
10019,Hell's Kitchen/Midtown Manhattan,"10019, 10020",40.76528,-73.985974,18072,3327,18.4,41523.441
10021,Lenox Hill/Upper East Side,10021,40.769474,-73.958771,19404,3288,16.9,42297.047
10022,East Midtown,10022,40.758676,-73.968098,13827,2292,16.6,44753.112
10023,Lincoln Square,10023,40.775901,-73.982658,22777,3463,15.2,36866.438
10024,Upper West Side,10024,40.792085,-73.974871,21952,3666,16.7,37581.284
10025,Manhattan Valley/Morningside Heights/Upper West Side,10025,40.798651,-73.966585,31456,5957,18.9,34333.143
10026,Central Harlem (South),10026,40.802341,-73.952521,12006,2846,23.7,31051.85
10027,Central Harlem (South)/Morningside Heights/West Harlem,10027,40.8118,-73.953204,18857,4544,24.1,29745.46
10028,Upper East Side/Yorkville,10028,40.776432,-73.953509,18693,3048,16.3,39461.442
10029,East Harlem,10029,40.791777,-73.943969,22023,5842,26.5,28153.467
10030,Central Harlem (North),10030,40.818326,-73.942842,8232,2270,27.6,28124.484
10031,Hamilton Heights/West Harlem,10031,40.825278,-73.950037,22424,7563,33.7,37991.629
10032,Washington Heights (South),10032,40.838768,-73.942824,24589,8893,36.2,38998.516
10033,Washington Heights (North)/Washington Heights (South),10033,40.850497,-73.934007,24604,8978,36.5,42045.318
10034,Inwood/Washington Heights (North),10034,40.867168,-73.924048,17001,6011,35.4,40246.823
10035,East Harlem,10035,40.791,-73.924596,10242,3002,29.3,29063.542
10036,Hell's Kitchen/Midtown Manhattan,10036,40.75916,-73.989705,11836,2507,21.2,43447.372
10037,Central Harlem (North)/East Harlem,10037,40.812957,-73.937419,6646,1740,26.2,31962.116
10038,Chinatown/Financial District,10038,40.709696,-74.002391,7951,1390,17.5,34774.317
10039,Central Harlem (North)/Washington Heights (South),10039,40.830807,-73.936247,7987,2292,28.7,29384.748
10040,Washington Heights (North),10040,40.85831,-73.93049,18456,6762,36.6,41977.584
10044,Roosevelt Island,10044,40.761931,-73.949924,3356,641,19.1,28752.956
10065,Lenox Hill/Upper East Side,10065,40.764616,-73.963135,12455,1919,15.4,44643.016
10069,Lincoln Square,10069,40.775924,-73.990256,2410,363,15.1,38347.922
10075,Lenox Hill/Upper East Side,"10075, 10162",40.773132,-73.955884,10737,1876,17.5,46592.461
10128,Upper East Side/Yorkville,10128,40.781466,-73.950226,23662,3819,16.1,40407.248
10280,Battery Park City,10280,40.709318,-74.016654,2717,382,14.1,29070.591
10282,Battery Park City,10282,40.716409,-74.015077,1743,254,14.6,31281.724
10301,Silver Lake/St. George,10301,40.628224,-74.096232,11114,2902,26.1,28567.05
10302,Elm Park,10302,40.630598,-74.137891,4373,1283,29.3,23657.058
10303,Graniteville/Mariner's Harbor/Port Ivory,10303,40.632135,-74.169166,5973,1694,28.4,22528.919
10304,New Dorp/Todt Hill,10304,40.605985,-74.0943,13129,3459,26.3,31343.953
10305,Arrochar/Midland Beach/Shore Acres/South Beach Ocean Breeze,10305,40.595474,-74.075437,13959,3519,25.2,32571.726
10306,Lighthouse Hill/Midland Beach/New Dorp/Oakwood,10306,40.571571,-74.125541,19779,4741,24,37455.394
10307,Tottenville,10307,40.507771,-74.24227,4895,1221,24.9,32825.564
10308,Great Kills,10308,40.551574,-74.150454,9423,2109,22.4,31598.811
10309,Charleston/Prince's Bay/Woodrow,10309,40.531355,-74.220574,11716,2843,24.3,35568.171
10310,Port Richmond/Randall Manor/West Brighton,10310,40.632398,-74.11618,8309,2148,25.9,35445.613
10312,Annadale/Rossville,10312,40.545128,-74.18169,21166,4962,23.4,34668.392
10314,Bloomfield/Freshkills Park,10314,40.599333,-74.166462,28883,7647,26.5,31216.81
10451,Concourse/Melrose,10451,40.820705,-73.923865,14723,5130,34.8,31082.741
10452,Concourse/Highbridge,10452,40.837364,-73.923461,26457,10596,40,35176.377
10453,Morris Heights/Mount Hope/University Heights,10453,40.852304,-73.913578,25080,10017,39.9,31876.933
10454,Mott Haven/Port Morris,10454,40.805487,-73.916605,10999,3947,35.9,29075.02
10455,Mott Haven,10455,40.8147,-73.908583,11875,4235,35.7,28345.498
10456,Claremont/Morrisania,10456,40.829884,-73.908121,26252,9913,37.8,28169.548
10457,Belmont/Claremont/Mount Hope/Tremont,10457,40.847151,-73.898676,21923,8366,38.2,29737.567
10458,Belmont/Fordham University/Kingsbridge,10458,40.862531,-73.88817,21783,7860,36.1,26326.912
10459,Charlotte Gardens/Hunts Point,10459,40.82584,-73.892976,14228,5104,35.9,29720.377
10460,Charlotte Gardens/Tremont/Van Nest/West Farms,10460,40.841753,-73.879584,17025,5774,33.9,28917.345
10461,Morris Park/Pelham Bay/Westchester Square,10461,40.847415,-73.840601,17943,4855,27.1,36545.405
10462,Parkchester/Pelham Parkway/Van Nest/Westchester Square,10462,40.842874,-73.858772,25050,7244,28.9,33259.945
10463,Kingsbridge/Marble Hill/Riverdale/Spuyten Duyvil,10463,40.880824,-73.906514,23920,6976,29.2,34179.307
10464,City Island,10464,40.872311,-73.804653,1503,324,21.6,35072.61
10465,Country Club/Throgs Neck,10465,40.823931,-73.822886,14794,3868,26.1,34307.128
10466,Edenwald/Wakefield,10466,40.890965,-73.845912,15966,5318,33.3,22389.532
10467,Allerton/Norwood/Pelham Parkway/Williamsbridge,10467,40.880939,-73.873956,27941,9749,34.9,27377.415
10468,Fordham/Kingsbridge/University Heights,10468,40.868161,-73.899844,24352,9417,38.7,31296.181
10469,Allerton/Baychester/Pelham Gardens/Williamsbridge,10469,40.86876,-73.846984,18113,5671,31.3,24943.209
10470,Wakefield/Woodlawn,10470,40.895986,-73.86802,4069,1228,30.2,27141.535
10471,Fieldston/North Riverdale/Riverdale,10471,40.899509,-73.901518,7548,1869,24.8,35534.951
10472,Soundview,10472,40.829561,-73.869393,18164,6531,36,26719.967
10473,Castle Hill/Clason Point/Soundview,10473,40.818135,-73.858718,17394,5147,29.6,29426.226
10474,Hunts Point,10474,40.810595,-73.884618,3145,1107,35.2,26261.765
10475,Co-op City/Edenwald,10475,40.868941,-73.824854,10481,3015,28.8,24524.256
11004,Bellerose/Douglaston-Little Neck,"11004, 11005",40.748068,-73.710907,7644,1822,23.8,40338.802
11101,Astoria (South)/Long Island City/Sunnyside,11101,40.747077,-73.938586,15345,3385,22.1,41658.136
11102,Astoria (North),11102,40.772498,-73.925912,12488,3275,26.2,41564.663
11103,Astoria (North)/Astoria (South),11103,40.762536,-73.913541,13455,3370,25,38511.754
11104,Sunnyside,11104,40.744658,-73.920205,10705,2786,26,42084.238
11105,Ditmars Steinway,11105,40.778969,-73.906286,14046,3028,21.6,38811.983
11106,Astoria (South),11106,40.761792,-73.931771,13826,3537,25.6,36939.644
11109,Long Island City,11109,40.746211,-73.956999,2324,336,14.5,40327.926
11201,Brooklyn Heights/DUMBO/Downtown Brooklyn,11201,40.694609,-73.989581,24565,3783,15.4,39433.934
11203,East Flatbush (North)/East Flatbush (South),11203,40.649576,-73.934363,20859,7804,37.4,28451.446
11204,Bensonhurst/Mapleton,11204,40.618774,-73.984824,32777,12214,37.3,42519.222
11205,Bedford-Stuyvesant (West)/Clinton Hill/Fort Greene,11205,40.694625,-73.966212,14780,4270,28.9,32603.614
11206,Williamsburg (South),11206,40.701957,-73.942361,26984,8652,32.1,31119.85
11207,Cypress Hills/East New York,11207,40.670819,-73.894255,25619,8173,31.9,28775.102
11208,Cypress Hills/East New York,11208,40.668385,-73.871084,27623,9822,35.6,28904.879
11209,Bay Ridge/Fort Hamilton,11209,40.621811,-74.030011,24949,5624,22.5,36953.576
11210,Flatlands/Midwood,11210,40.628165,-73.946316,24023,9666,40.2,36571.921
11211,East Williamsburg/Williamsburg (North)/Williamsburg (South),"11211, 11249",40.712334,-73.953851,38398,12201,31.8,37768.398
11212,Ocean Hill-Brownsville,11212,40.662935,-73.913011,20988,7065,33.7,28374.82
11213,Crown Heights (East),11213,40.671074,-73.93633,21907,8664,39.5,33911.103
11214,Bath Beach/Bensonhurst/Gravesend,11214,40.598729,-73.99621,34504,8531,24.7,37175.362
11215,Gowanus/Park Slope/Windsor Terrace,11215,40.66252,-73.986872,23252,3431,14.8,33396.355
11216,Bedford-Stuyvesant (West)/Crown Heights (West),11216,40.680785,-73.94931,16736,3691,22.1,30526.02
11217,Boerum Hill/Park Slope,"11217, 11243",40.682417,-73.97938,14781,2535,17.2,36165.255
11218,Kensington/Windsor Terrace,11218,40.64348,-73.976044,29978,10651,35.5,40513.046
11219,Borough Park,11219,40.632662,-73.996666,40520,18999,46.9,44980.973
11220,Sunset Park,11220,40.641081,-74.016495,36450,9833,27,38534.419
11221,Bedford-Stuyvesant (East)/Bushwick,11221,40.691339,-73.927885,24096,6277,26,29587.156
11222,Greenpoint,11222,40.728292,-73.947562,14742,2613,17.7,40810.094
11223,Gravesend/Homecrest,11223,40.597169,-73.973422,31146,9534,30.6,38219.87
11224,Brighton Beach/Coney Island/Seagate,11224,40.57666,-73.988581,17446,4994,28.6,37704.117
11225,Crown Heights (West)/Prospect Lefferts Gardens,11225,40.663056,-73.954226,18650,6300,33.8,32427.062
11226,Flatbush/Prospect Lefferts Gardens,11226,40.646456,-73.956654,26702,8914,33.4,27427.435
11228,Bath Beach/Dyker Heights,11228,40.616715,-74.013054,15054,3406,22.6,33465.964
11229,Gerritsen Beach/Homecrest/Sheepshead Bay,11229,40.601175,-73.944465,34969,9968,28.5,41863.262
11230,Midwood,11230,40.622164,-73.965096,40337,15764,39.1,45378.963
11231,Carroll Gardens/Cobble Hill/Red Hook,11231,40.677562,-74.004445,13332,2134,16,35669.344
11232,Sunset Park,11232,40.655984,-74.005304,8513,2697,31.7,31429.839
11233,Bedford-Stuyvesant (East)/Ocean Hill-Brownsville,11233,40.678302,-73.919931,17026,4654,27.3,22907.995
11234,Bergen Beach/Flatlands/Marine Park/Mill Basin,11234,40.60758,-73.910513,33681,10152,30.1,35809.49
11235,Brighton Beach/Manhattan Beach/Sheepshead Bay,11235,40.583915,-73.949669,36001,10297,28.6,46038.485
11236,Canarsie,11236,40.640004,-73.901459,29511,10231,34.7,30386.998
11237,Bushwick/East Williamsburg,11237,40.704153,-73.920883,16445,5593,34,34260.002
11238,Clinton Hill/Prospect Heights,11238,40.679179,-73.963804,20794,3704,17.8,38832.001
11239,East New York,11239,40.64753,-73.882398,5611,1638,29.2,43087.627
11354,Flushing/Murray Hill,11354,40.76863,-73.827229,21974,5279,24,40753.84
11355,Flushing/Murray Hill/Queensboro Hill,11355,40.751459,-73.821014,36821,8557,23.2,46695.814
11356,College Point,11356,40.784867,-73.841495,8916,2528,28.4,39081.237
11357,Whitestone,11357,40.78639,-73.810964,16240,3545,21.8,41947.818
11358,Auburndale/Murray Hill,11358,40.760475,-73.79637,13586,2863,21.1,37713.103
11360,Bayside (North),11360,40.78205,-73.7808,7451,1430,19.2,39122.331
11361,Bayside (North)/Bayside (South),11361,40.763748,-73.772419,9884,1920,19.4,37481.139
11362,Douglaston-Little Neck,11362,40.756533,-73.736995,6632,1171,17.7,36637.411
11363,Douglaston-Little Neck,11363,40.772803,-73.746444,2624,479,18.3,38958.841
11364,Bayside (South)/Oakland Gardens,11364,40.745279,-73.760578,12885,2320,18,36104.276
11365,Auburndale/Fresh Meadows/Pomonok/Utopia,11365,40.739775,-73.794806,16419,3481,21.2,37473.404
11366,Fresh Meadows/Hillcrest,11366,40.728136,-73.784981,5620,1538,27.4,39554.796
11367,Kew Gardens Hills/Pomonok,11367,40.730383,-73.826297,17878,5778,32.3,43952.167
11368,Corona/North Corona,11368,40.749594,-73.852604,43104,21103,49,39054.17
11369,Airport/East Elmhurst,11369,40.768944,-73.872812,14452,6276,43.4,42976.418
11370,Jackson Heights/Rikers Island,11370,40.763466,-73.891021,13677,4472,32.7,43040.11
11372,Jackson Heights,11372,40.75169,-73.883634,29248,11553,39.5,48198.234
11373,Elmhurst,11373,40.738823,-73.8785,42393,15040,35.5,46252.441
11374,Rego Park,11374,40.726441,-73.861497,20116,5738,28.5,48596.717
11375,Forest Hills,11375,40.720931,-73.846184,29051,6720,23.1,40763.884
11377,Woodside,11377,40.744823,-73.90516,34455,11333,32.9,40994.378
11378,Maspeth,11378,40.724768,-73.909399,13545,3921,28.9,37473.597
11379,Middle Village,11379,40.716758,-73.879597,14423,3488,24.2,39367.856
11385,Glendale/Ridgewood,11385,40.701058,-73.890159,36213,10769,29.7,34949.51
11411,Cambria Heights,11411,40.694202,-73.735998,5592,1659,29.7,26157.604
11412,St. Albans,11412,40.698095,-73.758984,9742,3169,32.5,25571.176
11413,Laurelton/Rosedale,11413,40.669738,-73.750842,11284,3613,32,26116.21
11414,Hamilton Beach/Howard Beach/Lindenwood,11414,40.658266,-73.844905,10465,2567,24.5,36902.652
11415,Kew Gardens,11415,40.708323,-73.828212,8198,2396,29.2,43437.651
11416,Ozone Park,11416,40.684652,-73.849549,9416,3034,32.2,35680.697
11417,Ozone Park,11417,40.676457,-73.844522,11172,3271,29.3,35990.718
11418,Richmond Hill,11418,40.700236,-73.836062,14822,4951,33.4,39435.316
11419,Richmond Hill/South Ozone Park,11419,40.688676,-73.822901,14747,4575,31,30403.102
11420,South Ozone Park,11420,40.673518,-73.817812,13898,4257,30.6,29054.006
11421,Woodhaven,11421,40.69405,-73.85867,15662,5198,33.2,39106.606
11422,Rosedale,11422,40.660819,-73.73608,8837,2665,30.2,27283.906
11423,Hollis/Holliswood,11423,40.71491,-73.767865,10239,3279,32,32882.224
11426,Bellerose,11426,40.736521,-73.722384,7055,1743,24.7,34988.823
11427,Bellerose/Hollis Hills/Holliswood,11427,40.730915,-73.745611,9269,2577,27.8,39320.702
11428,Queens Village,11428,40.721015,-73.742206,7006,2025,28.9,37705.342
11429,Queens Village,11429,40.709772,-73.738731,8325,2686,32.3,25879.517
11432,Hillcrest/Jamaica Estates/Jamaica Hills,11432,40.715359,-73.793064,25647,8435,32.9,42214.013
11433,Jamaica,11433,40.69823,-73.787095,9693,3239,33.4,26540.225
11434,Airport/South Jamaica/Springfield Gardens/St. Albans,11434,40.656866,-73.783386,17145,5341,31.2,25680.25
11435,Briarwood/Jamaica,11435,40.701291,-73.809618,18654,6197,33.2,31933.556
11436,South Jamaica/South Ozone Park,11436,40.675819,-73.796618,5098,1538,30.2,25435.898
11691,Edgemere/Far Rockaway,11691,40.60133,-73.761357,19670,7136,36.3,29421.308
11692,Arverne/Edgemere,11692,40.592794,-73.792203,4813,1484,30.8,22887.303
11693,Arverne/Broad Channel,11693,40.603699,-73.821926,3661,912,24.9,28890.147
11694,Belle Harbor-Neponsit/Rockaway Park,11694,40.577599,-73.844553,7430,1963,26.4,35756.568
11697,Breezy Point,11697,40.55907,-73.907199,2403,507,21.1,70830.281
