modzcta_first,NEIGHBORHOOD_NAME,label,lat,lon,NUM_PEOP_TEST,NUM_PEOP_POS,PERCENT_POSITIVE,TEST_RATE
10001,Chelsea/NoMad/West Chelsea,"10001, 10118",40.750693,-73.997137,11756,3176,27,42574.013
10002,Chinatown/Lower East Side,10002,40.715781,-73.986176,33022,11294,34.2,43840.696
10003,East Village/Gramercy/Greenwich Village,10003,40.731825,-73.989164,19701,4489,22.8,36498.331
10004,Financial District,10004,40.703675,-74.013106,1626,369,22.7,54708.498
10005,Financial District,10005,40.706092,-74.008861,3414,739,21.6,38984.949
10006,Financial District,10006,40.709651,-74.013044,1485,311,20.9,43911.533
10007,TriBeCa,10007,40.713923,-74.007546,3449,705,20.4,49331.684
10009,Alphabet City/East Village/Stuyvesant Town-Cooper Village,10009,40.72638,-73.978704,21747,5284,24.3,38051.746
10010,Flatiron/Gramercy/Kips Bay,10010,40.739119,-73.982544,12534,2702,21.6,37579.829
10011,Chelsea,10011,40.741707,-74.000062,21122,4938,23.4,42459.708
10012,Greenwich Village/SoHo,10012,40.725576,-73.998078,8617,2040,23.7,37219.139
10013,Hudson Square/Little Italy/SoHo/TriBeCa,10013,40.720096,-74.004763,14194,3616,25.5,49252.464
10014,Hudson Square/Meatpacking District/West Village,10014,40.73402,-74.006314,12818,2758,21.5,42253.354
10016,Kips Bay/Murray Hill/NoMad,10016,40.745174,-73.978319,22537,5426,24.1,44266.485
10017,East Midtown/Murray Hill,10017,40.752543,-73.973037,7676,1797,23.4,49163.316
10018,Hell's Kitchen/Midtown Manhattan,10018,40.755191,-73.992667,6708,1756,26.2,56893.033
10019,Hell's Kitchen/Midtown Manhattan,"10019, 10020",40.76528,-73.985974,19937,5468,27.4,45808.591
10021,Lenox Hill/Upper East Side,10021,40.769474,-73.958771,20429,4962,24.3,44531.353
10022,East Midtown,10022,40.758676,-73.968098,14742,3616,24.5,47714.643
10023,Lincoln Square,10023,40.775901,-73.982658,25516,7175,28.1,41299.734
10024,Upper West Side,10024,40.792085,-73.974871,23678,6137,25.9,40536.154
10025,Manhattan Valley/Morningside Heights/Upper West Side,10025,40.798651,-73.966585,34079,9426,27.7,37196.057
10026,Central Harlem (South),10026,40.802341,-73.952521,12765,3759,29.4,33014.898
10027,Central Harlem (South)/Morningside Heights/West Harlem,10027,40.8118,-73.953204,20050,5783,28.8,31627.325
10028,Upper East Side/Yorkville,10028,40.776432,-73.953509,19732,4732,24,41654.8
10029,East Harlem,10029,40.791777,-73.943969,23638,7744,32.8,30218.029
10030,Central Harlem (North),10030,40.818326,-73.942842,8767,2808,32,29952.303
10031,Hamilton Heights/West Harlem,10031,40.825278,-73.950037,23687,8930,37.7,40131.453
10032,Washington Heights (South),10032,40.838768,-73.942824,26000,10584,40.7,41236.383
10033,Washington Heights (North)/Washington Heights (South),10033,40.850497,-73.934007,26004,10746,41.3,44437.752
10034,Inwood/Washington Heights (North),10034,40.867168,-73.924048,17799,6987,39.3,42135.945
10035,East Harlem,10035,40.791,-73.924596,10961,3764,34.3,31103.836
10036,Hell's Kitchen/Midtown Manhattan,10036,40.75916,-73.989705,13108,3846,29.3,48116.607
10037,Central Harlem (North)/East Harlem,10037,40.812957,-73.937419,6977,2126,30.5,33553.97
10038,Chinatown/Financial District,10038,40.709696,-74.002391,8506,2261,26.6,37201.653
10039,Central Harlem (North)/Washington Heights (South),10039,40.830807,-73.936247,8501,2842,33.4,31275.791
10040,Washington Heights (North),10040,40.85831,-73.93049,19413,7883,40.6,44154.25
10044,Roosevelt Island,10044,40.761931,-73.949924,3601,930,25.8,30852.025
10065,Lenox Hill/Upper East Side,10065,40.764616,-73.963135,13133,2940,22.4,47073.202
10069,Lincoln Square,10069,40.775924,-73.990256,2671,684,25.6,42500.954
10075,Lenox Hill/Upper East Side,"10075, 10162",40.773132,-73.955884,11390,2843,25,49426.109
10128,Upper East Side/Yorkville,10128,40.781466,-73.950226,25023,5933,23.7,42731.408
10280,Battery Park City,10280,40.709318,-74.016654,2851,554,19.4,30504.326
10282,Battery Park City,10282,40.716409,-74.015077,1821,345,18.9,32681.595
10301,Silver Lake/St. George,10301,40.628224,-74.096232,12118,3985,32.9,31147.698
10302,Elm Park,10302,40.630598,-74.137891,4833,1776,36.7,26145.567
10303,Graniteville/Mariner's Harbor/Port Ivory,10303,40.632135,-74.169166,6629,2395,36.1,25003.215
10304,New Dorp/Todt Hill,10304,40.605985,-74.0943,14747,5287,35.9,35206.739
10305,Arrochar/Midland Beach/Shore Acres/South Beach Ocean Breeze,10305,40.595474,-74.075437,15828,5728,36.2,36932.823
10306,Lighthouse Hill/Midland Beach/New Dorp/Oakwood,10306,40.571571,-74.125541,22105,7598,34.4,41860.129
10307,Tottenville,10307,40.507771,-74.24227,5326,1749,32.8,35715.824
10308,Great Kills,10308,40.551574,-74.150454,10491,3347,31.9,35180.211
10309,Charleston/Prince's Bay/Woodrow,10309,40.531355,-74.220574,12870,4219,32.8,39071.557
10310,Port Richmond/Randall Manor/West Brighton,10310,40.632398,-74.11618,8816,2728,30.9,37608.44
10312,Annadale/Rossville,10312,40.545128,-74.18169,23384,7563,32.3,38301.317
10314,Bloomfield/Freshkills Park,10314,40.599333,-74.166462,31859,11325,35.5,34433.277
10451,Concourse/Melrose,10451,40.820705,-73.923865,15509,5850,37.7,32742.119
10452,Concourse/Highbridge,10452,40.837364,-73.923461,28100,12274,43.7,37360.857
10453,Morris Heights/Mount Hope/University Heights,10453,40.852304,-73.913578,26706,11456,42.9,33943.596
10454,Mott Haven/Port Morris,10454,40.805487,-73.916605,11731,4633,39.5,31010.006
10455,Mott Haven,10455,40.8147,-73.908583,12535,4826,38.5,29920.91
10456,Claremont/Morrisania,10456,40.829884,-73.908121,27843,11340,40.7,29876.76
10457,Belmont/Claremont/Mount Hope/Tremont,10457,40.847151,-73.898676,23344,9560,41,31665.09
10458,Belmont/Fordham University/Kingsbridge,10458,40.862531,-73.88817,23152,9106,39.3,27981.484
10459,Charlotte Gardens/Hunts Point,10459,40.82584,-73.892976,14958,5691,38,31245.248
10460,Charlotte Gardens/Tremont/Van Nest/West Farms,10460,40.841753,-73.879584,18061,6580,36.4,30677.015
10461,Morris Park/Pelham Bay/Westchester Square,10461,40.847415,-73.840601,18960,5943,31.3,38616.779
10462,Parkchester/Pelham Parkway/Van Nest/Westchester Square,10462,40.842874,-73.858772,26549,8578,32.3,35250.23
10463,Kingsbridge/Marble Hill/Riverdale/Spuyten Duyvil,10463,40.880824,-73.906514,25397,8479,33.4,36289.794
10464,City Island,10464,40.872311,-73.804653,1597,419,26.2,37266.106
10465,Country Club/Throgs Neck,10465,40.823931,-73.822886,15768,5015,31.8,36565.823
10466,Edenwald/Wakefield,10466,40.890965,-73.845912,17170,6136,35.7,24077.932
10467,Allerton/Norwood/Pelham Parkway/Williamsbridge,10467,40.880939,-73.873956,29649,11255,38,29050.963
10468,Fordham/Kingsbridge/University Heights,10468,40.868161,-73.899844,25974,10843,41.7,33380.709
10469,Allerton/Baychester/Pelham Gardens/Williamsbridge,10469,40.86876,-73.846984,19253,6568,34.1,26513.09
10470,Wakefield/Woodlawn,10470,40.895986,-73.86802,4345,1442,33.2,28982.543
10471,Fieldston/North Riverdale/Riverdale,10471,40.899509,-73.901518,8004,2401,30,37681.737
10472,Soundview,10472,40.829561,-73.869393,19391,7539,38.9,28524.933
10473,Castle Hill/Clason Point/Soundview,10473,40.818135,-73.858718,18415,5955,32.3,31153.499
10474,Hunts Point,10474,40.810595,-73.884618,3302,1224,37.1,27572.766
10475,Co-op City/Edenwald,10475,40.868941,-73.824854,11123,3518,31.6,26026.457
11004,Bellerose/Douglaston-Little Neck,"11004, 11005",40.748068,-73.710907,8446,3010,35.6,44571.105
11101,Astoria (South)/Long Island City/Sunnyside,11101,40.747077,-73.938586,16400,4548,27.7,44522.217
11102,Astoria (North),11102,40.772498,-73.925912,13263,4061,30.6,44144.149
11103,Astoria (North)/Astoria (South),11103,40.762536,-73.913541,14310,4320,30.2,40958.99
11104,Sunnyside,11104,40.744658,-73.920205,11274,3583,31.8,44321.131
11105,Ditmars Steinway,11105,40.778969,-73.906286,14960,3954,26.4,41337.553
11106,Astoria (South),11106,40.761792,-73.931771,14816,4701,31.7,39584.679
11109,Long Island City,11109,40.746211,-73.956999,2444,475,19.4,42410.263
11201,Brooklyn Heights/DUMBO/Downtown Brooklyn,11201,40.694609,-73.989581,25924,5370,20.7,41615.522
11203,East Flatbush (North)/East Flatbush (South),11203,40.649576,-73.934363,22334,9188,41.1,30463.33
11204,Bensonhurst/Mapleton,11204,40.618774,-73.984824,36743,17588,47.9,47664.026
11205,Bedford-Stuyvesant (West)/Clinton Hill/Fort Greene,11205,40.694625,-73.966212,15449,4988,32.3,34079.38
11206,Williamsburg (South),11206,40.701957,-73.942361,28470,10382,36.5,32833.61
11207,Cypress Hills/East New York,11207,40.670819,-73.894255,27330,9716,35.6,30696.887
11208,Cypress Hills/East New York,11208,40.668385,-73.871084,29532,11875,40.2,30902.468
11209,Bay Ridge/Fort Hamilton,11209,40.621811,-74.030011,26699,7867,29.5,39545.614
11210,Flatlands/Midwood,11210,40.628165,-73.946316,25663,11830,46.1,39068.61
11211,East Williamsburg/Williamsburg (North)/Williamsburg (South),"11211, 11249",40.712334,-73.953851,40184,14194,35.3,39525.114
11212,Ocean Hill-Brownsville,11212,40.662935,-73.913011,22888,8393,36.7,30943.533
11213,Crown Heights (East),11213,40.671074,-73.93633,23262,9992,43,36008.585
11214,Bath Beach/Bensonhurst/Gravesend,11214,40.598729,-73.99621,39430,15260,38.7,42482.742
11215,Gowanus/Park Slope/Windsor Terrace,11215,40.66252,-73.986872,24074,4521,18.8,34576.976
11216,Bedford-Stuyvesant (West)/Crown Heights (West),11216,40.680785,-73.94931,17475,4356,24.9,31873.936
11217,Boerum Hill/Park Slope,"11217, 11243",40.682417,-73.97938,15331,3230,21.1,37510.961
11218,Kensington/Windsor Terrace,11218,40.64348,-73.976044,31692,12850,40.5,42829.39
11219,Borough Park,11219,40.632662,-73.996666,44633,24497,54.9,49546.786
11220,Sunset Park,11220,40.641081,-74.016495,47578,22087,46.4,50298.782
11221,Bedford-Stuyvesant (East)/Bushwick,11221,40.691339,-73.927885,25230,7411,29.4,30979.58
11222,Greenpoint,11222,40.728292,-73.947562,15479,3444,22.2,42850.322
11223,Gravesend/Homecrest,11223,40.597169,-73.973422,34340,14079,41,42139.29
11224,Brighton Beach/Coney Island/Seagate,11224,40.57666,-73.988581,19785,8353,42.2,42759.14
11225,Crown Heights (West)/Prospect Lefferts Gardens,11225,40.663056,-73.954226,19519,7232,37.1,33938.007
11226,Flatbush/Prospect Lefferts Gardens,11226,40.646456,-73.956654,28211,10459,37.1,28977.431
11228,Bath Beach/Dyker Heights,11228,40.616715,-74.013054,16902,5974,35.3,37574.181
11229,Gerritsen Beach/Homecrest/Sheepshead Bay,11229,40.601175,-73.944465,38619,15356,39.8,46232.873
11230,Midwood,11230,40.622164,-73.965096,43384,20159,46.5,48806.825
11231,Carroll Gardens/Cobble Hill/Red Hook,11231,40.677562,-74.004445,13795,2685,19.5,36908.086
11232,Sunset Park,11232,40.655984,-74.005304,9151,3458,37.8,33785.324
11233,Bedford-Stuyvesant (East)/Ocean Hill-Brownsville,11233,40.678302,-73.919931,18122,5557,30.7,24382.632
11234,Bergen Beach/Flatlands/Marine Park/Mill Basin,11234,40.60758,-73.910513,35922,13144,36.6,38192.111
11235,Brighton Beach/Manhattan Beach/Sheepshead Bay,11235,40.583915,-73.949669,40922,17136,41.9,52331.515
11236,Canarsie,11236,40.640004,-73.901459,31644,12517,39.6,32583.314
11237,Bushwick/East Williamsburg,11237,40.704153,-73.920883,17178,6391,37.2,35787.067
11238,Clinton Hill/Prospect Heights,11238,40.679179,-73.963804,21502,4524,21,40154.164
11239,East New York,11239,40.64753,-73.882398,6024,2165,35.9,46259.11
11354,Flushing/Murray Hill,11354,40.76863,-73.827229,25039,10324,41.2,46438.309
11355,Flushing/Murray Hill/Queensboro Hill,11355,40.751459,-73.821014,42238,17478,41.4,53565.569
11356,College Point,11356,40.784867,-73.841495,9951,3956,39.8,43617.921
11357,Whitestone,11357,40.78639,-73.810964,17834,5878,33,46065.11
11358,Auburndale/Murray Hill,11358,40.760475,-73.79637,14974,4939,33,41566.025
11360,Bayside (North),11360,40.78205,-73.7808,8178,2547,31.1,42939.528
11361,Bayside (North)/Bayside (South),11361,40.763748,-73.772419,10869,3346,30.8,41216.36
11362,Douglaston-Little Neck,11362,40.756533,-73.736995,7340,2264,30.8,40548.643
11363,Douglaston-Little Neck,11363,40.772803,-73.746444,2874,868,30.2,42670.621
11364,Bayside (South)/Oakland Gardens,11364,40.745279,-73.760578,14224,4435,31.2,39856.207
11365,Auburndale/Fresh Meadows/Pomonok/Utopia,11365,40.739775,-73.794806,18037,5999,33.3,41166.197
11366,Fresh Meadows/Hillcrest,11366,40.728136,-73.784981,6196,2385,38.5,43608.811
11367,Kew Gardens Hills/Pomonok,11367,40.730383,-73.826297,19639,8391,42.7,48281.497
11368,Corona/North Corona,11368,40.749594,-73.852604,45941,24766,53.9,41624.62
11369,Airport/East Elmhurst,11369,40.768944,-73.872812,15537,7626,49.1,46202.92
11370,Jackson Heights/Rikers Island,11370,40.763466,-73.891021,15599,6238,40,49088.446
11372,Jackson Heights,11372,40.75169,-73.883634,31367,14430,46,51690.167
11373,Elmhurst,11373,40.738823,-73.8785,46021,20606,44.8,50210.732
11374,Rego Park,11374,40.726441,-73.861497,21978,8407,38.3,53094.981
11375,Forest Hills,11375,40.720931,-73.846184,31616,10447,33,44363.049
11377,Woodside,11377,40.744823,-73.90516,36786,14717,40,43767.79
11378,Maspeth,11378,40.724768,-73.909399,14639,5212,35.6,40500.257
11379,Middle Village,11379,40.716758,-73.879597,15661,5042,32.2,42747.001
11385,Glendale/Ridgewood,11385,40.701058,-73.890159,38803,13529,34.9,37449.143
11411,Cambria Heights,11411,40.694202,-73.735998,6180,2250,36.4,28908.082
11412,St. Albans,11412,40.698095,-73.758984,10747,4126,38.4,28209.139
11413,Laurelton/Rosedale,11413,40.669738,-73.750842,12361,4694,38,28608.869
11414,Hamilton Beach/Howard Beach/Lindenwood,11414,40.658266,-73.844905,11330,3801,33.5,39952.895
11415,Kew Gardens,11415,40.708323,-73.828212,8896,3337,37.5,47136.051
11416,Ozone Park,11416,40.684652,-73.849549,10241,4109,40.1,38806.927
11417,Ozone Park,11417,40.676457,-73.844522,12071,4456,36.9,38886.856
11418,Richmond Hill,11418,40.700236,-73.836062,16048,6428,40.1,42697.204
11419,Richmond Hill/South Ozone Park,11419,40.688676,-73.822901,15911,6137,38.6,32802.859
11420,South Ozone Park,11420,40.673518,-73.817812,14999,5636,37.6,31355.665
11421,Woodhaven,11421,40.69405,-73.85867,16947,6972,41.1,42315.136
11422,Rosedale,11422,40.660819,-73.73608,9675,3504,36.2,29871.199
11423,Hollis/Holliswood,11423,40.71491,-73.767865,11087,4328,39,35605.549
11426,Bellerose,11426,40.736521,-73.722384,7650,2520,32.9,37939.687
11427,Bellerose/Hollis Hills/Holliswood,11427,40.730915,-73.745611,10015,3634,36.3,42485.363
11428,Queens Village,11428,40.721015,-73.742206,7576,2815,37.2,40773.005
11429,Queens Village,11429,40.709772,-73.738731,9199,3614,39.3,28596.478
11432,Hillcrest/Jamaica Estates/Jamaica Hills,11432,40.715359,-73.793064,27786,11268,40.6,45734.727
11433,Jamaica,11433,40.69823,-73.787095,10725,4242,39.6,29365.925
11434,Airport/South Jamaica/Springfield Gardens/St. Albans,11434,40.656866,-73.783386,18896,6980,36.9,28302.945
11435,Briarwood/Jamaica,11435,40.701291,-73.809618,20336,8050,39.6,34812.951
11436,South Jamaica/South Ozone Park,11436,40.675819,-73.796618,5599,2050,36.6,27935.581
11691,Edgemere/Far Rockaway,11691,40.60133,-73.761357,21983,9351,42.5,32880.967
11692,Arverne/Edgemere,11692,40.592794,-73.792203,5329,1953,36.6,25341.042
11693,Arverne/Broad Channel,11693,40.603699,-73.821926,3987,1312,32.9,31462.72
11694,Belle Harbor-Neponsit/Rockaway Park,11694,40.577599,-73.844553,7850,2608,33.2,37777.8
11697,Breezy Point,11697,40.55907,-73.907199,2485,648,26.1,73247.294
