modzcta_first,NEIGHBORHOOD_NAME,label,lat,lon,NUM_PEOP_TEST,NUM_PEOP_POS,PERCENT_POSITIVE,TEST_RATE
10001,Chelsea/NoMad/West Chelsea,"10001, 10118",40.750693,-73.997137,12844,4210,32.8,46514.173
10002,Chinatown/Lower East Side,10002,40.715781,-73.986176,34112,12750,37.4,45287.802
10003,East Village/Gramercy/Greenwich Village,10003,40.731825,-73.989164,20182,5122,25.4,37389.438
10004,Financial District,10004,40.703675,-74.013106,1757,487,27.7,59116.133
10005,Financial District,10005,40.706092,-74.008861,3499,840,24,39955.576
10006,Financial District,10006,40.709651,-74.013044,1551,373,24,45863.157
10007,TriBeCa,10007,40.713923,-74.007546,3553,833,23.4,50819.215
10009,Alphabet City/East Village/Stuyvesant Town-Cooper Village,10009,40.72638,-73.978704,22215,5926,26.7,38870.628
10010,Flatiron/Gramercy/Kips Bay,10010,40.739119,-73.982544,12861,3126,24.3,38560.25
10011,Chelsea,10011,40.741707,-74.000062,21691,5752,26.5,43603.519
10012,Greenwich Village/SoHo,10012,40.725576,-73.998078,8846,2340,26.5,38208.252
10013,Hudson Square/Little Italy/SoHo/TriBeCa,10013,40.720096,-74.004763,14644,4159,28.4,50813.942
10014,Hudson Square/Meatpacking District/West Village,10014,40.73402,-74.006314,13112,3193,24.4,43222.498
10016,Kips Bay/Murray Hill/NoMad,10016,40.745174,-73.978319,23435,6373,27.2,46030.309
10017,East Midtown/Murray Hill,10017,40.752543,-73.973037,8137,2287,28.1,52115.933
10018,Hell's Kitchen/Midtown Manhattan,10018,40.755191,-73.992667,7664,2626,34.3,65001.223
10019,Hell's Kitchen/Midtown Manhattan,"10019, 10020",40.76528,-73.985974,21131,6758,32,48552.005
10021,Lenox Hill/Upper East Side,10021,40.769474,-73.958771,21025,5879,28,45830.52
10022,East Midtown,10022,40.758676,-73.968098,15291,4335,28.4,49491.562
10023,Lincoln Square,10023,40.775901,-73.982658,27050,9304,34.4,43782.638
10024,Upper West Side,10024,40.792085,-73.974871,24485,7399,30.2,41917.718
10025,Manhattan Valley/Morningside Heights/Upper West Side,10025,40.798651,-73.966585,35400,11228,31.7,38637.883
10026,Central Harlem (South),10026,40.802341,-73.952521,13120,4191,31.9,33933.056
10027,Central Harlem (South)/Morningside Heights/West Harlem,10027,40.8118,-73.953204,20481,6300,30.8,32307.194
10028,Upper East Side/Yorkville,10028,40.776432,-73.953509,20213,5448,27,42670.204
10029,East Harlem,10029,40.791777,-73.943969,24525,8795,35.9,31351.94
10030,Central Harlem (North),10030,40.818326,-73.942842,8959,3033,33.9,30608.267
10031,Hamilton Heights/West Harlem,10031,40.825278,-73.950037,24082,9442,39.2,40800.678
10032,Washington Heights (South),10032,40.838768,-73.942824,26512,11360,42.8,42048.423
10033,Washington Heights (North)/Washington Heights (South),10033,40.850497,-73.934007,26563,11480,43.2,45393.017
10034,Inwood/Washington Heights (North),10034,40.867168,-73.924048,18046,7300,40.5,42720.673
10035,East Harlem,10035,40.791,-73.924596,11348,4171,36.8,32202.019
10036,Hell's Kitchen/Midtown Manhattan,10036,40.75916,-73.989705,16470,6712,40.8,60457.775
10037,Central Harlem (North)/East Harlem,10037,40.812957,-73.937419,7128,2316,32.5,34280.163
10038,Chinatown/Financial District,10038,40.709696,-74.002391,8860,2687,30.3,38749.899
10039,Central Harlem (North)/Washington Heights (South),10039,40.830807,-73.936247,8677,3057,35.2,31923.307
10040,Washington Heights (North),10040,40.85831,-73.93049,19759,8288,41.9,44941.216
10044,Roosevelt Island,10044,40.761931,-73.949924,3719,1061,28.5,31863.005
10065,Lenox Hill/Upper East Side,10065,40.764616,-73.963135,13543,3467,25.6,48542.783
10069,Lincoln Square,10069,40.775924,-73.990256,2796,836,29.9,44489.955
10075,Lenox Hill/Upper East Side,"10075, 10162",40.773132,-73.955884,11703,3299,28.2,50784.35
10128,Upper East Side/Yorkville,10128,40.781466,-73.950226,25679,6896,26.9,43851.65
10280,Battery Park City,10280,40.709318,-74.016654,2905,611,21,31082.1
10282,Battery Park City,10282,40.716409,-74.015077,1867,408,21.9,33507.16
10301,Silver Lake/St. George,10301,40.628224,-74.096232,12440,4373,35.2,31975.355
10302,Elm Park,10302,40.630598,-74.137891,4958,1911,38.5,26821.792
10303,Graniteville/Mariner's Harbor/Port Ivory,10303,40.632135,-74.169166,6824,2612,38.3,25738.714
10304,New Dorp/Todt Hill,10304,40.605985,-74.0943,15310,5915,38.6,36550.835
10305,Arrochar/Midland Beach/Shore Acres/South Beach Ocean Breeze,10305,40.595474,-74.075437,16505,6602,40,38512.525
10306,Lighthouse Hill/Midland Beach/New Dorp/Oakwood,10306,40.571571,-74.125541,22898,8627,37.7,43361.829
10307,Tottenville,10307,40.507771,-74.24227,5464,1943,35.6,36641.243
10308,Great Kills,10308,40.551574,-74.150454,10817,3763,34.8,36273.41
10309,Charleston/Prince's Bay/Woodrow,10309,40.531355,-74.220574,13231,4684,35.4,40167.504
10310,Port Richmond/Randall Manor/West Brighton,10310,40.632398,-74.11618,8999,2945,32.7,38389.105
10312,Annadale/Rossville,10312,40.545128,-74.18169,24116,8521,35.3,39500.28
10314,Bloomfield/Freshkills Park,10314,40.599333,-74.166462,32907,12612,38.3,35565.958
10451,Concourse/Melrose,10451,40.820705,-73.923865,15938,6313,39.6,33647.811
10452,Concourse/Highbridge,10452,40.837364,-73.923461,28641,12870,44.9,38080.153
10453,Morris Heights/Mount Hope/University Heights,10453,40.852304,-73.913578,27357,12103,44.2,34771.023
10454,Mott Haven/Port Morris,10454,40.805487,-73.916605,12285,5275,42.9,32474.463
10455,Mott Haven,10455,40.8147,-73.908583,12811,5106,39.9,30579.719
10456,Claremont/Morrisania,10456,40.829884,-73.908121,28460,11957,42,30538.828
10457,Belmont/Claremont/Mount Hope/Tremont,10457,40.847151,-73.898676,23903,10108,42.3,32423.349
10458,Belmont/Fordham University/Kingsbridge,10458,40.862531,-73.88817,23740,9767,41.1,28692.14
10459,Charlotte Gardens/Hunts Point,10459,40.82584,-73.892976,15275,5998,39.3,31907.419
10460,Charlotte Gardens/Tremont/Van Nest/West Farms,10460,40.841753,-73.879584,18503,7016,37.9,31427.761
10461,Morris Park/Pelham Bay/Westchester Square,10461,40.847415,-73.840601,19472,6546,33.6,39659.595
10462,Parkchester/Pelham Parkway/Van Nest/Westchester Square,10462,40.842874,-73.858772,27162,9248,34,36064.136
10463,Kingsbridge/Marble Hill/Riverdale/Spuyten Duyvil,10463,40.880824,-73.906514,25965,9261,35.7,37101.409
10464,City Island,10464,40.872311,-73.804653,1626,460,28.3,37942.823
10465,Country Club/Throgs Neck,10465,40.823931,-73.822886,16131,5486,34,37407.616
10466,Edenwald/Wakefield,10466,40.890965,-73.845912,17614,6541,37.1,24700.565
10467,Allerton/Norwood/Pelham Parkway/Williamsbridge,10467,40.880939,-73.873956,30448,12024,39.5,29833.847
10468,Fordham/Kingsbridge/University Heights,10468,40.868161,-73.899844,26699,11621,43.5,34312.449
10469,Allerton/Baychester/Pelham Gardens/Williamsbridge,10469,40.86876,-73.846984,19748,7075,35.8,27194.749
10470,Wakefield/Woodlawn,10470,40.895986,-73.86802,4466,1548,34.7,29789.652
10471,Fieldston/North Riverdale/Riverdale,10471,40.899509,-73.901518,8195,2616,31.9,38580.939
10472,Soundview,10472,40.829561,-73.869393,19875,8029,40.4,29236.916
10473,Castle Hill/Clason Point/Soundview,10473,40.818135,-73.858718,18807,6357,33.8,31816.663
10474,Hunts Point,10474,40.810595,-73.884618,3370,1272,37.7,28140.588
10475,Co-op City/Edenwald,10475,40.868941,-73.824854,11526,3891,33.8,26969.428
11004,Bellerose/Douglaston-Little Neck,"11004, 11005",40.748068,-73.710907,8748,3419,39.1,46164.815
11101,Astoria (South)/Long Island City/Sunnyside,11101,40.747077,-73.938586,17027,5202,30.6,46224.378
11102,Astoria (North),11102,40.772498,-73.925912,13634,4514,33.1,45378.973
11103,Astoria (North)/Astoria (South),11103,40.762536,-73.913541,14739,4864,33,42186.901
11104,Sunnyside,11104,40.744658,-73.920205,11523,3971,34.5,45300.017
11105,Ditmars Steinway,11105,40.778969,-73.906286,15391,4420,28.7,42528.494
11106,Astoria (South),11106,40.761792,-73.931771,15366,5400,35.1,41054.142
11109,Long Island City,11109,40.746211,-73.956999,2499,537,21.5,43364.667
11201,Brooklyn Heights/DUMBO/Downtown Brooklyn,11201,40.694609,-73.989581,26638,6165,23.1,42761.699
11203,East Flatbush (North)/East Flatbush (South),11203,40.649576,-73.934363,22918,9827,42.9,31259.899
11204,Bensonhurst/Mapleton,11204,40.618774,-73.984824,38745,20351,52.5,50261.075
11205,Bedford-Stuyvesant (West)/Clinton Hill/Fort Greene,11205,40.694625,-73.966212,15766,5346,33.9,34778.659
11206,Williamsburg (South),11206,40.701957,-73.942361,29251,11350,38.8,33734.314
11207,Cypress Hills/East New York,11207,40.670819,-73.894255,28047,10497,37.4,31502.217
11208,Cypress Hills/East New York,11208,40.668385,-73.871084,30223,12680,42,31625.535
11209,Bay Ridge/Fort Hamilton,11209,40.621811,-74.030011,27420,8901,32.5,40613.534
11210,Flatlands/Midwood,11210,40.628165,-73.946316,26388,12898,48.9,40172.329
11211,East Williamsburg/Williamsburg (North)/Williamsburg (South),"11211, 11249",40.712334,-73.953851,41048,15239,37.1,40374.947
11212,Ocean Hill-Brownsville,11212,40.662935,-73.913011,23754,9099,38.3,32114.326
11213,Crown Heights (East),11213,40.671074,-73.93633,24001,10742,44.8,37152.526
11214,Bath Beach/Bensonhurst/Gravesend,11214,40.598729,-73.99621,41907,18832,44.9,45151.516
11215,Gowanus/Park Slope/Windsor Terrace,11215,40.66252,-73.986872,24440,5031,20.6,35102.654
11216,Bedford-Stuyvesant (West)/Crown Heights (West),11216,40.680785,-73.94931,17780,4703,26.5,32430.248
11217,Boerum Hill/Park Slope,"11217, 11243",40.682417,-73.97938,15569,3539,22.7,38093.285
11218,Kensington/Windsor Terrace,11218,40.64348,-73.976044,32501,13945,42.9,43922.694
11219,Borough Park,11219,40.632662,-73.996666,46506,27086,58.2,51625.991
11220,Sunset Park,11220,40.641081,-74.016495,52451,27422,52.3,55450.448
11221,Bedford-Stuyvesant (East)/Bushwick,11221,40.691339,-73.927885,25926,8229,31.7,31834.189
11222,Greenpoint,11222,40.728292,-73.947562,15810,3860,24.4,43766.625
11223,Gravesend/Homecrest,11223,40.597169,-73.973422,35831,16293,45.5,43968.925
11224,Brighton Beach/Coney Island/Seagate,11224,40.57666,-73.988581,20679,9613,46.5,44691.244
11225,Crown Heights (West)/Prospect Lefferts Gardens,11225,40.663056,-73.954226,19928,7730,38.8,34649.142
11226,Flatbush/Prospect Lefferts Gardens,11226,40.646456,-73.956654,28898,11242,38.9,29683.095
11228,Bath Beach/Dyker Heights,11228,40.616715,-74.013054,17790,7184,40.4,39548.26
11229,Gerritsen Beach/Homecrest/Sheepshead Bay,11229,40.601175,-73.944465,40115,17661,44,48023.814
11230,Midwood,11230,40.622164,-73.965096,44809,22432,50.1,50409.945
11231,Carroll Gardens/Cobble Hill/Red Hook,11231,40.677562,-74.004445,14048,3047,21.7,37584.979
11232,Sunset Park,11232,40.655984,-74.005304,9404,3793,40.3,34719.395
11233,Bedford-Stuyvesant (East)/Ocean Hill-Brownsville,11233,40.678302,-73.919931,18591,6026,32.4,25013.658
11234,Bergen Beach/Flatlands/Marine Park/Mill Basin,11234,40.60758,-73.910513,36895,14535,39.4,39226.6
11235,Brighton Beach/Manhattan Beach/Sheepshead Bay,11235,40.583915,-73.949669,42668,19589,45.9,54564.32
11236,Canarsie,11236,40.640004,-73.901459,32568,13728,42.2,33534.741
11237,Bushwick/East Williamsburg,11237,40.704153,-73.920883,17822,7204,40.4,37128.717
11238,Clinton Hill/Prospect Heights,11238,40.679179,-73.963804,21825,4920,22.5,40757.354
11239,East New York,11239,40.64753,-73.882398,6206,2422,39,47656.713
11354,Flushing/Murray Hill,11354,40.76863,-73.827229,26581,12448,46.8,49298.163
11355,Flushing/Murray Hill/Queensboro Hill,11355,40.751459,-73.821014,44405,20511,46.2,56313.724
11356,College Point,11356,40.784867,-73.841495,10430,4552,43.6,45717.508
11357,Whitestone,11357,40.78639,-73.810964,18448,6744,36.6,47651.068
11358,Auburndale/Murray Hill,11358,40.760475,-73.79637,15546,5720,36.8,43153.828
11360,Bayside (North),11360,40.78205,-73.7808,8456,2966,35.1,44399.199
11361,Bayside (North)/Bayside (South),11361,40.763748,-73.772419,11247,3867,34.4,42649.775
11362,Douglaston-Little Neck,11362,40.756533,-73.736995,7576,2572,33.9,41852.386
11363,Douglaston-Little Neck,11363,40.772803,-73.746444,2980,1001,33.6,44244.415
11364,Bayside (South)/Oakland Gardens,11364,40.745279,-73.760578,14709,5170,35.1,41215.196
11365,Auburndale/Fresh Meadows/Pomonok/Utopia,11365,40.739775,-73.794806,18645,6879,36.9,42553.847
11366,Fresh Meadows/Hillcrest,11366,40.728136,-73.784981,6427,2756,42.9,45234.64
11367,Kew Gardens Hills/Pomonok,11367,40.730383,-73.826297,20314,9467,46.6,49940.951
11368,Corona/North Corona,11368,40.749594,-73.852604,47137,26369,55.9,42708.25
11369,Airport/East Elmhurst,11369,40.768944,-73.872812,16039,8273,51.6,47695.735
11370,Jackson Heights/Rikers Island,11370,40.763466,-73.891021,16569,7195,43.4,52140.936
11372,Jackson Heights,11372,40.75169,-73.883634,32575,16055,49.3,53680.849
11373,Elmhurst,11373,40.738823,-73.8785,47590,22933,48.2,51922.574
11374,Rego Park,11374,40.726441,-73.861497,22674,9440,41.6,54776.395
11375,Forest Hills,11375,40.720931,-73.846184,32602,11883,36.4,45746.588
11377,Woodside,11377,40.744823,-73.90516,37868,16095,42.5,45055.148
11378,Maspeth,11378,40.724768,-73.909399,15085,5847,38.8,41734.161
11379,Middle Village,11379,40.716758,-73.879597,16265,5767,35.5,44395.631
11385,Glendale/Ridgewood,11385,40.701058,-73.890159,40014,15089,37.7,38617.891
11411,Cambria Heights,11411,40.694202,-73.735998,6382,2474,38.8,29852.974
11412,St. Albans,11412,40.698095,-73.758984,11080,4463,40.3,29083.21
11413,Laurelton/Rosedale,11413,40.669738,-73.750842,12657,5015,39.6,29293.945
11414,Hamilton Beach/Howard Beach/Lindenwood,11414,40.658266,-73.844905,11692,4333,37.1,41229.413
11415,Kew Gardens,11415,40.708323,-73.828212,9227,3836,41.6,48889.876
11416,Ozone Park,11416,40.684652,-73.849549,10513,4467,42.5,39837.635
11417,Ozone Park,11417,40.676457,-73.844522,12386,4882,39.4,39901.632
11418,Richmond Hill,11418,40.700236,-73.836062,16526,7058,42.7,43968.967
11419,Richmond Hill/South Ozone Park,11419,40.688676,-73.822901,16320,6715,41.1,33646.073
11420,South Ozone Park,11420,40.673518,-73.817812,15404,6183,40.1,32202.325
11421,Woodhaven,11421,40.69405,-73.85867,17494,7722,44.1,43680.946
11422,Rosedale,11422,40.660819,-73.73608,9912,3772,38.1,30602.928
11423,Hollis/Holliswood,11423,40.71491,-73.767865,11423,4764,41.7,36684.603
11426,Bellerose,11426,40.736521,-73.722384,7871,2831,36,39035.723
11427,Bellerose/Hollis Hills/Holliswood,11427,40.730915,-73.745611,10312,4041,39.2,43745.289
11428,Queens Village,11428,40.721015,-73.742206,7808,3090,39.6,42021.598
11429,Queens Village,11429,40.709772,-73.738731,9501,3969,41.8,29535.291
11432,Hillcrest/Jamaica Estates/Jamaica Hills,11432,40.715359,-73.793064,28653,12466,43.5,47161.777
11433,Jamaica,11433,40.69823,-73.787095,11058,4622,41.8,30277.706
11434,Airport/South Jamaica/Springfield Gardens/St. Albans,11434,40.656866,-73.783386,19449,7592,39,29131.244
11435,Briarwood/Jamaica,11435,40.701291,-73.809618,20918,8835,42.2,35809.27
11436,South Jamaica/South Ozone Park,11436,40.675819,-73.796618,5758,2222,38.6,28728.893
11691,Edgemere/Far Rockaway,11691,40.60133,-73.761357,22939,10510,45.8,34310.899
11692,Arverne/Edgemere,11692,40.592794,-73.792203,5516,2157,39.1,26230.285
11693,Arverne/Broad Channel,11693,40.603699,-73.821926,4109,1477,35.9,32425.461
11694,Belle Harbor-Neponsit/Rockaway Park,11694,40.577599,-73.844553,8071,2927,36.3,38841.354
11697,Breezy Point,11697,40.55907,-73.907199,2516,723,28.7,74161.043
