modzcta_first,NEIGHBORHOOD_NAME,label,lat,lon,NUM_PEOP_TEST,NUM_PEOP_POS,PERCENT_POSITIVE,TEST_RATE
10001,Chelsea/NoMad/West Chelsea,"10001, 10118",40.750693,-73.997137,12337,3756,30.4,44678.087
10002,Chinatown/Lower East Side,10002,40.715781,-73.986176,33747,12381,36.7,44803.221
10003,East Village/Gramercy/Greenwich Village,10003,40.731825,-73.989164,19991,4908,24.6,37035.589
10004,Financial District,10004,40.703675,-74.013106,1690,427,25.3,56861.846
10005,Financial District,10005,40.706092,-74.008861,3458,790,22.8,39487.391
10006,Financial District,10006,40.709651,-74.013044,1508,336,22.3,44591.645
10007,TriBeCa,10007,40.713923,-74.007546,3509,791,22.5,50189.875
10009,Alphabet City/East Village/Stuyvesant Town-Cooper Village,10009,40.72638,-73.978704,22038,5676,25.8,38560.923
10010,Flatiron/Gramercy/Kips Bay,10010,40.739119,-73.982544,12781,3024,23.7,38320.392
10011,Chelsea,10011,40.741707,-74.000062,21426,5403,25.2,43070.812
10012,Greenwich Village/SoHo,10012,40.725576,-73.998078,8757,2240,25.6,37823.837
10013,Hudson Square/Little Italy/SoHo/TriBeCa,10013,40.720096,-74.004763,14457,3997,27.6,50165.061
10014,Hudson Square/Meatpacking District/West Village,10014,40.73402,-74.006314,12985,3027,23.3,42803.854
10016,Kips Bay/Murray Hill/NoMad,10016,40.745174,-73.978319,23078,6021,26.1,45329.101
10017,East Midtown/Murray Hill,10017,40.752543,-73.973037,7888,2032,25.8,50521.136
10018,Hell's Kitchen/Midtown Manhattan,10018,40.755191,-73.992667,7031,2052,29.2,59632.515
10019,Hell's Kitchen/Midtown Manhattan,"10019, 10020",40.76528,-73.985974,20462,6102,29.8,47014.866
10021,Lenox Hill/Upper East Side,10021,40.769474,-73.958771,20782,5539,26.7,45300.826
10022,East Midtown,10022,40.758676,-73.968098,15009,4020,26.8,48578.828
10023,Lincoln Square,10023,40.775901,-73.982658,26310,8247,31.3,42584.888
10024,Upper West Side,10024,40.792085,-73.974871,24105,6828,28.3,41267.168
10025,Manhattan Valley/Morningside Heights/Upper West Side,10025,40.798651,-73.966585,34739,10331,29.7,37916.425
10026,Central Harlem (South),10026,40.802341,-73.952521,12936,3973,30.7,33457.166
10027,Central Harlem (South)/Morningside Heights/West Harlem,10027,40.8118,-73.953204,20306,6080,29.9,32031.145
10028,Upper East Side/Yorkville,10028,40.776432,-73.953509,20041,5227,26.1,42307.108
10029,East Harlem,10029,40.791777,-73.943969,24072,8267,34.3,30772.84
10030,Central Harlem (North),10030,40.818326,-73.942842,8884,2938,33.1,30352.031
10031,Hamilton Heights/West Harlem,10031,40.825278,-73.950037,23934,9232,38.6,40549.931
10032,Washington Heights (South),10032,40.838768,-73.942824,26307,11016,41.9,41723.29
10033,Washington Heights (North)/Washington Heights (South),10033,40.850497,-73.934007,26346,11194,42.5,45022.19
10034,Inwood/Washington Heights (North),10034,40.867168,-73.924048,17951,7178,40,42495.777
10035,East Harlem,10035,40.791,-73.924596,11167,3987,35.7,31688.398
10036,Hell's Kitchen/Midtown Manhattan,10036,40.75916,-73.989705,13909,4520,32.5,51056.903
10037,Central Harlem (North)/East Harlem,10037,40.812957,-73.937419,7078,2235,31.6,34039.701
10038,Chinatown/Financial District,10038,40.709696,-74.002391,8674,2463,28.4,37936.414
10039,Central Harlem (North)/Washington Heights (South),10039,40.830807,-73.936247,8614,2968,34.5,31691.526
10040,Washington Heights (North),10040,40.85831,-73.93049,19608,8119,41.4,44597.772
10044,Roosevelt Island,10044,40.761931,-73.949924,3673,1010,27.5,31468.894
10065,Lenox Hill/Upper East Side,10065,40.764616,-73.963135,13360,3278,24.5,47886.848
10069,Lincoln Square,10069,40.775924,-73.990256,2740,773,28.2,43598.883
10075,Lenox Hill/Upper East Side,"10075, 10162",40.773132,-73.955884,11581,3133,27.1,50254.94
10128,Upper East Side/Yorkville,10128,40.781466,-73.950226,25423,6601,26,43414.482
10280,Battery Park City,10280,40.709318,-74.016654,2887,589,20.4,30889.509
10282,Battery Park City,10282,40.716409,-74.015077,1850,386,20.9,33202.06
10301,Silver Lake/St. George,10301,40.628224,-74.096232,12355,4272,34.6,31756.874
10302,Elm Park,10302,40.630598,-74.137891,4928,1887,38.3,26659.498
10303,Graniteville/Mariner's Harbor/Port Ivory,10303,40.632135,-74.169166,6787,2564,37.8,25599.158
10304,New Dorp/Todt Hill,10304,40.605985,-74.0943,15145,5765,38.1,36156.917
10305,Arrochar/Midland Beach/Shore Acres/South Beach Ocean Breeze,10305,40.595474,-74.075437,16362,6403,39.1,38178.851
10306,Lighthouse Hill/Midland Beach/New Dorp/Oakwood,10306,40.571571,-74.125541,22715,8404,37,43015.283
10307,Tottenville,10307,40.507771,-74.24227,5447,1914,35.1,36527.242
10308,Great Kills,10308,40.551574,-74.150454,10748,3679,34.2,36042.027
10309,Charleston/Prince's Bay/Woodrow,10309,40.531355,-74.220574,13162,4595,34.9,39958.029
10310,Port Richmond/Randall Manor/West Brighton,10310,40.632398,-74.11618,8940,2880,32.2,38137.415
10312,Annadale/Rossville,10312,40.545128,-74.18169,23948,8318,34.7,39225.108
10314,Bloomfield/Freshkills Park,10314,40.599333,-74.166462,32641,12323,37.8,35278.464
10451,Concourse/Melrose,10451,40.820705,-73.923865,15740,6082,38.6,33229.799
10452,Concourse/Highbridge,10452,40.837364,-73.923461,28434,12605,44.3,37804.933
10453,Morris Heights/Mount Hope/University Heights,10453,40.852304,-73.913578,27046,11764,43.5,34375.739
10454,Mott Haven/Port Morris,10454,40.805487,-73.916605,11992,4911,41,31699.94
10455,Mott Haven,10455,40.8147,-73.908583,12692,4966,39.1,30295.668
10456,Claremont/Morrisania,10456,40.829884,-73.908121,28208,11655,41.3,30268.421
10457,Belmont/Claremont/Mount Hope/Tremont,10457,40.847151,-73.898676,23652,9830,41.6,32082.878
10458,Belmont/Fordham University/Kingsbridge,10458,40.862531,-73.88817,23451,9398,40.1,28342.855
10459,Charlotte Gardens/Hunts Point,10459,40.82584,-73.892976,15138,5857,38.7,31621.244
10460,Charlotte Gardens/Tremont/Van Nest/West Farms,10460,40.841753,-73.879584,18290,6787,37.1,31065.976
10461,Morris Park/Pelham Bay/Westchester Square,10461,40.847415,-73.840601,19220,6294,32.7,39146.334
10462,Parkchester/Pelham Parkway/Van Nest/Westchester Square,10462,40.842874,-73.858772,26878,8925,33.2,35687.058
10463,Kingsbridge/Marble Hill/Riverdale/Spuyten Duyvil,10463,40.880824,-73.906514,25709,8927,34.7,36735.611
10464,City Island,10464,40.872311,-73.804653,1608,439,27.3,37522.792
10465,Country Club/Throgs Neck,10465,40.823931,-73.822886,16001,5320,33.2,37106.148
10466,Edenwald/Wakefield,10466,40.890965,-73.845912,17401,6320,36.3,24401.87
10467,Allerton/Norwood/Pelham Parkway/Williamsbridge,10467,40.880939,-73.873956,30053,11614,38.6,29446.814
10468,Fordham/Kingsbridge/University Heights,10468,40.868161,-73.899844,26346,11197,42.5,33858.788
10469,Allerton/Baychester/Pelham Gardens/Williamsbridge,10469,40.86876,-73.846984,19517,6847,35.1,26876.641
10470,Wakefield/Woodlawn,10470,40.895986,-73.86802,4412,1503,34.1,29429.455
10471,Fieldston/North Riverdale/Riverdale,10471,40.899509,-73.901518,8122,2543,31.3,38237.265
10472,Soundview,10472,40.829561,-73.869393,19639,7780,39.6,28889.75
10473,Castle Hill/Clason Point/Soundview,10473,40.818135,-73.858718,18605,6146,33,31474.931
10474,Hunts Point,10474,40.810595,-73.884618,3347,1254,37.5,27948.531
10475,Co-op City/Edenwald,10475,40.868941,-73.824854,11379,3748,32.9,26625.466
11004,Bellerose/Douglaston-Little Neck,"11004, 11005",40.748068,-73.710907,8639,3295,38.1,45589.602
11101,Astoria (South)/Long Island City/Sunnyside,11101,40.747077,-73.938586,16706,4868,29.1,45352.937
11102,Astoria (North),11102,40.772498,-73.925912,13451,4283,31.8,44769.882
11103,Astoria (North)/Astoria (South),11103,40.762536,-73.913541,14526,4589,31.6,41577.239
11104,Sunnyside,11104,40.744658,-73.920205,11419,3810,33.4,44891.165
11105,Ditmars Steinway,11105,40.778969,-73.906286,15212,4217,27.7,42033.881
11106,Astoria (South),11106,40.761792,-73.931771,15063,5017,33.3,40244.601
11109,Long Island City,11109,40.746211,-73.956999,2486,521,21,43139.081
11201,Brooklyn Heights/DUMBO/Downtown Brooklyn,11201,40.694609,-73.989581,26317,5839,22.2,42246.401
11203,East Flatbush (North)/East Flatbush (South),11203,40.649576,-73.934363,22685,9588,42.3,30942.09
11204,Bensonhurst/Mapleton,11204,40.618774,-73.984824,38062,19449,51.1,49375.069
11205,Bedford-Stuyvesant (West)/Clinton Hill/Fort Greene,11205,40.694625,-73.966212,15651,5208,33.3,34524.977
11206,Williamsburg (South),11206,40.701957,-73.942361,28884,10868,37.6,33311.064
11207,Cypress Hills/East New York,11207,40.670819,-73.894255,27720,10138,36.6,31134.932
11208,Cypress Hills/East New York,11208,40.668385,-73.871084,29923,12333,41.2,31311.613
11209,Bay Ridge/Fort Hamilton,11209,40.621811,-74.030011,27169,8568,31.5,40241.762
11210,Flatlands/Midwood,11210,40.628165,-73.946316,26142,12584,48.1,39797.826
11211,East Williamsburg/Williamsburg (North)/Williamsburg (South),"11211, 11249",40.712334,-73.953851,40710,14795,36.3,40042.489
11212,Ocean Hill-Brownsville,11212,40.662935,-73.913011,23387,8738,37.4,31618.159
11213,Crown Heights (East),11213,40.671074,-73.93633,23738,10492,44.2,36745.413
11214,Bath Beach/Bensonhurst/Gravesend,11214,40.598729,-73.99621,41062,17601,42.9,44241.094
11215,Gowanus/Park Slope/Windsor Terrace,11215,40.66252,-73.986872,24308,4852,20,34913.065
11216,Bedford-Stuyvesant (West)/Crown Heights (West),11216,40.680785,-73.94931,17634,4531,25.7,32163.948
11217,Boerum Hill/Park Slope,"11217, 11243",40.682417,-73.97938,15460,3409,22.1,37826.591
11218,Kensington/Windsor Terrace,11218,40.64348,-73.976044,32209,13571,42.1,43528.078
11219,Borough Park,11219,40.632662,-73.996666,45833,26222,57.2,50878.898
11220,Sunset Park,11220,40.641081,-74.016495,51631,26414,51.2,54583.556
11221,Bedford-Stuyvesant (East)/Bushwick,11221,40.691339,-73.927885,25583,7799,30.5,31413.024
11222,Greenpoint,11222,40.728292,-73.947562,15661,3658,23.4,43354.151
11223,Gravesend/Homecrest,11223,40.597169,-73.973422,35413,15667,44.2,43455.989
11224,Brighton Beach/Coney Island/Seagate,11224,40.57666,-73.988581,20390,9251,45.4,44066.66
11225,Crown Heights (West)/Prospect Lefferts Gardens,11225,40.663056,-73.954226,19756,7534,38.1,34350.083
11226,Flatbush/Prospect Lefferts Gardens,11226,40.646456,-73.956654,28581,10890,38.1,29357.483
11228,Bath Beach/Dyker Heights,11228,40.616715,-74.013054,17477,6810,39,38852.442
11229,Gerritsen Beach/Homecrest/Sheepshead Bay,11229,40.601175,-73.944465,39698,17071,43,47524.601
11230,Midwood,11230,40.622164,-73.965096,44344,21763,49.1,49886.822
11231,Carroll Gardens/Cobble Hill/Red Hook,11231,40.677562,-74.004445,13922,2860,20.5,37247.87
11232,Sunset Park,11232,40.655984,-74.005304,9304,3666,39.4,34350.197
11233,Bedford-Stuyvesant (East)/Ocean Hill-Brownsville,11233,40.678302,-73.919931,18390,5821,31.7,24743.218
11234,Bergen Beach/Flatlands/Marine Park/Mill Basin,11234,40.60758,-73.910513,36555,14071,38.5,38865.114
11235,Brighton Beach/Manhattan Beach/Sheepshead Bay,11235,40.583915,-73.949669,42219,18937,44.9,53990.133
11236,Canarsie,11236,40.640004,-73.901459,32236,13318,41.3,33192.886
11237,Bushwick/East Williamsburg,11237,40.704153,-73.920883,17470,6730,38.5,36395.393
11238,Clinton Hill/Prospect Heights,11238,40.679179,-73.963804,21685,4742,21.9,40495.909
11239,East New York,11239,40.64753,-73.882398,6140,2335,38,47149.89
11354,Flushing/Murray Hill,11354,40.76863,-73.827229,25826,11492,44.5,47897.91
11355,Flushing/Murray Hill/Queensboro Hill,11355,40.751459,-73.821014,43564,19469,44.7,55247.181
11356,College Point,11356,40.784867,-73.841495,10215,4309,42.2,44775.105
11357,Whitestone,11357,40.78639,-73.810964,18257,6525,35.7,47157.717
11358,Auburndale/Murray Hill,11358,40.760475,-73.79637,15358,5480,35.7,42631.963
11360,Bayside (North),11360,40.78205,-73.7808,8388,2880,34.3,44042.157
11361,Bayside (North)/Bayside (South),11361,40.763748,-73.772419,11134,3734,33.5,42221.267
11362,Douglaston-Little Neck,11362,40.756533,-73.736995,7512,2513,33.5,41498.829
11363,Douglaston-Little Neck,11363,40.772803,-73.746444,2955,975,33,43873.238
11364,Bayside (South)/Oakland Gardens,11364,40.745279,-73.760578,14563,4976,34.2,40806.098
11365,Auburndale/Fresh Meadows/Pomonok/Utopia,11365,40.739775,-73.794806,18417,6595,35.8,42033.478
11366,Fresh Meadows/Hillcrest,11366,40.728136,-73.784981,6361,2660,41.8,44770.117
11367,Kew Gardens Hills/Pomonok,11367,40.730383,-73.826297,20104,9143,45.5,49424.676
11368,Corona/North Corona,11368,40.749594,-73.852604,46582,25672,55.1,42205.395
11369,Airport/East Elmhurst,11369,40.768944,-73.872812,15790,7962,50.4,46955.275
11370,Jackson Heights/Rikers Island,11370,40.763466,-73.891021,16358,6933,42.4,51476.941
11372,Jackson Heights,11372,40.75169,-73.883634,31959,15261,47.8,52665.733
11373,Elmhurst,11373,40.738823,-73.8785,46944,22083,47,51217.762
11374,Rego Park,11374,40.726441,-73.861497,22435,9094,40.5,54199.013
11375,Forest Hills,11375,40.720931,-73.846184,32317,11493,35.6,45346.681
11377,Woodside,11377,40.744823,-73.90516,37420,15578,41.6,44522.12
11378,Maspeth,11378,40.724768,-73.909399,14932,5620,37.6,41310.871
11379,Middle Village,11379,40.716758,-73.879597,15983,5490,34.3,43625.906
11385,Glendale/Ridgewood,11385,40.701058,-73.890159,39500,14372,36.4,38121.824
11411,Cambria Heights,11411,40.694202,-73.735998,6324,2398,37.9,29581.668
11412,St. Albans,11412,40.698095,-73.758984,10991,4373,39.8,28849.6
11413,Laurelton/Rosedale,11413,40.669738,-73.750842,12588,4935,39.2,29134.248
11414,Hamilton Beach/Howard Beach/Lindenwood,11414,40.658266,-73.844905,11565,4160,36,40781.574
11415,Kew Gardens,11415,40.708323,-73.828212,9105,3673,40.3,48243.451
11416,Ozone Park,11416,40.684652,-73.849549,10436,4367,41.8,39545.854
11417,Ozone Park,11417,40.676457,-73.844522,12281,4749,38.7,39563.373
11418,Richmond Hill,11418,40.700236,-73.836062,16322,6813,41.7,43426.206
11419,Richmond Hill/South Ozone Park,11419,40.688676,-73.822901,16176,6489,40.1,33349.195
11420,South Ozone Park,11420,40.673518,-73.817812,15268,5978,39.2,31918.014
11421,Woodhaven,11421,40.69405,-73.85867,17242,7392,42.9,43051.724
11422,Rosedale,11422,40.660819,-73.73608,9854,3697,37.5,30423.855
11423,Hollis/Holliswood,11423,40.71491,-73.767865,11305,4617,40.8,36305.649
11426,Bellerose,11426,40.736521,-73.722384,7799,2727,35,38678.643
11427,Bellerose/Hollis Hills/Holliswood,11427,40.730915,-73.745611,10216,3929,38.5,43338.04
11428,Queens Village,11428,40.721015,-73.742206,7733,3000,38.8,41617.958
11429,Queens Village,11429,40.709772,-73.738731,9422,3874,41.1,29289.707
11432,Hillcrest/Jamaica Estates/Jamaica Hills,11432,40.715359,-73.793064,28368,12081,42.6,46692.678
11433,Jamaica,11433,40.69823,-73.787095,10942,4485,41,29960.089
11434,Airport/South Jamaica/Springfield Gardens/St. Albans,11434,40.656866,-73.783386,19298,7429,38.5,28905.072
11435,Briarwood/Jamaica,11435,40.701291,-73.809618,20716,8564,41.3,35463.469
11436,South Jamaica/South Ozone Park,11436,40.675819,-73.796618,5715,2178,38.1,28514.35
11691,Edgemere/Far Rockaway,11691,40.60133,-73.761357,22631,10139,44.8,33850.21
11692,Arverne/Edgemere,11692,40.592794,-73.792203,5467,2093,38.3,25997.275
11693,Arverne/Broad Channel,11693,40.603699,-73.821926,4073,1418,34.8,32141.374
11694,Belle Harbor-Neponsit/Rockaway Park,11694,40.577599,-73.844553,8007,2855,35.7,38533.356
11697,Breezy Point,11697,40.55907,-73.907199,2501,705,28.2,73718.907
